C_FID,device_name,longitude,latitude,land_cover,E_FID
3013-284001,凤凰山高架桥(进城)1km+500m处,104.078135,30.712978,"1,2,3",199
3013-284002,凤凰山高架桥(出城)1km+500m处,104.078189,30.712879,"1,2,3",199
3013-284003,凤凰山高架桥(进城)2km+185m处,104.079244,30.719998,"1,2",200
3013-284004,凤凰山高架桥(出城)2km+341m处,104.080035,30.721257,"1,2",200
3013-284005,凤凰山高架桥(进城)3km+190m处,104.084512,30.727529,"1,2,3",225
3013-284007,凤凰山高架桥(进城)6km+886m处,104.093851,30.756997,"1,2,3",225
3013-284008,凤凰山高架桥(出城)6km+953m处,104.094534,30.757243,"1,2,3",225
3013-284009,金芙蓉大道一段(天宝路口至金新路口),104.111223,30.774443,"1,2,3",225
3013-284010,金芙蓉大道一段(金新路口至天宝路口),104.112793,30.77668,"1,2,3",225
3013-285001,神仙树高架路（出城）0km+529m处,104.035105,30.624433,"1,2",176
3013-285002,神仙树高架路（出城）2km+268m处,104.03809,30.614746,"1,2",177
3013-285003,神仙树高架路（进城）3km+507m处,104.046734,30.607196,"1,2",181
3013-285004,神仙树高架路（出城）3km+507m处,104.046751,30.607238,"1,2",181
3013-321000,日月大道二段（腾飞大道路口至文家路口）,103.937755,30.690241, ,207
3013-321008,成彭高速公路(川高速S1)2公里900米(彭州至成都),104.033438,30.798125,1、2,-1
3013-321009,成彭高速公路(川高速S1)2公里900米(彭州至成都),104.033093,30.798363,3、4、5,-1
3013-321010,成彭高速公路(川高速S1)3公里250米(成都至彭州),104.030497,30.800704,"1,2",-1
3013-321011,成彭高速公路(川高速S1)3公里250米(成都至彭州),104.030415,30.800761,"3,4,5",-1
3013-321012,成彭高速公路（川高速S1）6公里700米（成都至彭州）,104.020778,30.810131,"1,2",-1
3013-321013,成彭高速公路（川高速S1）6公里700米（成都至彭州）,104.020811,30.810139,"3,4,5",-1
3013-321014,成彭高速公路（川高速S1）6公里919米（彭州至成都）,104.009391,30.833753,3、4、5,-1
3013-321015,成彭高速公路（川高速S1）6公里919米（彭州至成都）,104.00939,30.833781,"1,2",-1
3013-321016,成彭高速公路(川高速S1)10公里320米(成都至彭州),103.99962,30.859194,1、2,-1
3013-321017,成彭高速公路(川高速S1)10公里320米(成都至彭州),103.999622,30.859106,3、4、5,-1
3013-321018,成彭高速公路（川高速S1）10公里320米（彭州至成都）,103.999351,30.859249,"1,2",-1
3013-321019,成彭高速公路（川高速S1）10公里320米（彭州至成都）,103.999307,30.859168,"3,4,5",-1
3013-321020,成彭高速公路(川高速S1)13公里860米(彭州至成都),103.981425,30.89765,"3,4,5",-1
3013-321021,成彭高速公路(川高速S1)13公里860米(彭州至成都),103.981293,30.89754,"3,4,5",-1
3013-321024,成彭高速公路(川高速S1)16公里165米(彭州至成都),103.978882,30.911645,"1,2",-1
3013-321025,成彭高速公路(川高速S1)16公里165米(彭州至成都),103.978935,30.911425,"3,4,5",-1
3013-321026,成彭高速公路(川高速S1)16公里728米(成都至彭州),103.978837,30.913422,"1,2",-1
3013-321027,成彭高速公路（川高速S1）16公里728米（成都至彭州）,103.978886,30.913217,3、4、5,-1
3013-321030,成彭高速公路(川高速S1)19公里700米(彭州至成都),103.953748,30.95266,"1,2,3",-1
3013-321031,成彭高速公路(川高速S1)20公里400米(成都至彭州),103.956507,30.946624,"1,2,3",-1
3013-329001,成温高架桥（光华北二路路口至贝森北路路口）,103.981596,30.676197,"1,2,3",207
3013-329002,成温高架桥（贝森北路路口至乌衣路路口）,103.983044,30.676318,"1,2,3",207
3013-329003,日月大道二段主道（导航路路口至光华北六路路口）,103.947156,30.685448,"1,2,3,4",207
3013-329004,日月大道二段主道（同诚路路口至文家路路口）,103.951054,30.683309,"1,2,3,4",207
3013-329005,日月大道二段主道（光华北六路路口至光华北三路路口）,103.955128,30.681747,"1,2,3,4",207
3013-329006,日月大道一段主道(翔龙路路口至同诚路路口）,103.965061,30.678862,"1,2,3,4",207
3013-331002,东三环路一段外侧主道（龙潭立交至蜀龙立交）,104.149398,30.710194,"1,2,3,4",135
3013-331004,东三环路二段外侧主道（成南立交至龙潭立交）,104.159658,30.683102,"1,2,3,4",128
3013-331007,东三环路四段内侧主道（十陵立交至成渝立交）,104.151555,30.64142,"1,2,3,4",32
3013-331008,东三环路四段外侧主道（成渝立交至十陵立交）,104.152327,30.64264,"1,2,3,4",32
3013-331024,南三环路五段内侧主道（蓝天立交至川藏立交）,104.016801,30.615578,"1,2,3,4",13
3013-331031,西三环路三段内侧主道（草金立交至苏坡立交）,103.98326,30.664407,"1,2,3,4",93
3013-331033,西三环路四段内侧主道（苏坡立交至羊犀立交）,103.995284,30.687567,"1,2,3,4",95
3013-331040,北三环路一段外侧主道（成彭立交至交大立交）,104.041199,30.725573,"1,2,3,4",192
3013-331043,北三环路三段内侧主道（凤凰立交至川陕立交）,104.089423,30.721759,"1,2,3,4",137
3013-331044,北三环路三段外侧主道（川陕立交至金凤凰立交）,104.094307,30.72169,"1,2,3,4",137
3013-342001,成洛大道高架桥(成洛大道上行匝道口至三环路十陵立交),104.162015,30.649372,"1,2,3,4",220
3013-342002,成洛大道高架桥(三环路十陵立交至成洛大道下行匝道),104.170349,30.648203,"1,2,3,4",220
3013-722001,二环高架路内侧2km+762m处,104.038037,30.630534,12,172
3013-722002,二环高架路外侧2km+760m处,104.038004,30.630433,23,172
3013-722003,二环高架路内侧7km+128m处,104.019342,30.663695,123,81
3013-722004,二环高架路外侧7km+137m处,104.019266,30.663764,123,81
3013-722005,二环高架路外侧11km+165m处,104.038454,30.693563,12,116
3013-722006,二环高架路内侧11km+177m处,104.03848,30.693217,34,116
3013-722007,二环高架路内侧11km+177m处,104.038574,30.693466,12,116
3013-722008,二环高架路外侧11km+165m处,104.038478,30.693593,34,116
3013-722009,二环高架路外侧14km+668m处,104.074244,30.696966,123,127
3013-722010,二环高架路内侧14km+668m处,104.074377,30.696908,123,127
3013-722011,二环高架路内侧19km+629m处,104.108999,30.66998,123,107
3013-722012,二环高架路外侧19km+629m处,104.109078,30.669955,123,107
3013-722013,二环高架路内侧22km+914m处,104.105101,30.642026,23,39
3013-722014,二环高架路内侧22km+914m处,104.104933,30.641949,1,39
3013-722015,二环高架路外侧22km+917m处,104.105172,30.642016,234,39
3013-722016,二环高架路内侧26km+168m处,104.083281,30.62301,45,21
3013-722017,二环高架路外侧26km+152m处,104.08332,30.622957,123,21
3013-722018,二环高架路内侧26km+168m处,104.083426,30.623078,23,21
3014-190001,天府大道北段下穿隧道（锦城大道路口至天府一街路口）,104.065896,30.573016,"1,2,3,4",215
3014-190002,天府大道北段下穿隧道（锦城大道路口至天府一街路口）,104.065909,30.571528,"1,2,3,4",215
3014-190003,天府大道北段下穿隧道（锦城大道路口至天府一街路口）,104.065985,30.570203,"1,2,3,4",215
3014-190004,天府大道北段下穿隧道（世纪城路路口至锦城大道路口）,104.066201,30.570209,"1,2,3,4",215
3014-190005,天府大道北段下穿隧道（世纪城路路口至锦城大道路口）,104.066175,30.57158,"1,2,3,4",215
3014-190006,天府大道北段下穿隧道（世纪城路路口至锦城大道路口）,104.066103,30.572661,"1,2,3,4",215
3014-190007,天府大道北段下穿隧道（锦悦西路路口至吉瑞三路路口）,104.066196,30.563618,"1,2,3,4",215
3014-190008,天府大道北段下穿隧道（锦悦西路路口至吉瑞三路路口）,104.066231,30.56224,"1,2,3,4",215
3014-190009,天府大道北段下穿隧道（世纪城路路口至锦悦东路路口）,104.066401,30.562266,"1,2,3,4",215
3014-190010,天府大道北段下穿隧道（世纪城路路口至锦悦东路路口）,104.066387,30.563608,"1,2,3,4",215
3014-190011,晋吉西三路下穿隧道（晋吉北路路口至果堰街路口）,103.997437,30.643449,"1,2",-1
3014-190012,晋吉西三路下穿隧道（果堰街路口至晋吉北路路口）,103.996441,30.642637,"1,2",-1
3014-190013,科华南路下穿隧道(锦悦东路路口至府滨中路路口),104.076107,30.56574,"1,2,3",216
3014-190014,科华南路下穿隧道(锦悦东路路口至府滨中路路口),104.075844,30.564579,"1,2,3",216
3014-190015,科华南路下穿隧道(府滨中路路口至锦悦东路路口),104.076037,30.564649,"1,2,3",216
3014-190016,科华南路下穿隧道(府滨中路路口至锦悦东路路口),104.076225,30.565654,"1,2,3",216
3014-190017,梓州大道下穿隧道（观东三街路口至祥龙二街路口）,104.07883,30.526176,"1,2,3",-1
3014-190018,梓州大道下穿隧道（观东三街路口至祥龙二街路口）,104.078822,30.525186,"1,2,3",-1
3014-190019,梓州大道下穿隧道（锦和西一街路口至观东三街路口）,104.07902,30.525166,"1,2,3",-1
3014-190020,梓州大道下穿隧道（锦和西一街路口至观东三街路口）,104.079015,30.526105,"1,2,3",-1
3014-190021,梓州大道下穿隧道(迎江路路口至锦韵路路口),104.086261,30.543387,"1,2,3",-1
3014-190023,梓州大道下穿隧道(吉龙一街路口至世纪城东路路口),104.085312,30.542686,"1,2,3",-1
3014-190025,梓州大道下穿隧道（锦韵路路口至观东二街路口）,104.079689,30.536488,"1,2,3",-1
3014-190026,梓州大道下穿隧道（锦韵路路口至观东二街路口）,104.079221,30.535448,"1,2,3",-1
3014-190027,梓州大道下穿隧道(观东一街路口至吉龙二街路口),104.079331,30.535398,"1,2,3",-1
3014-190033,红星路南延线通州东路下穿隧道支线内侧隧道入口,104.096718,30.439707,"1,2,3",-1
3014-190034,红星路南延线通州东路下穿隧道支线内侧隧道出口,104.097855,30.441016,"1,2,3",-1
3014-190035,通州路下穿隧道（兴象街路口至武汉路路口）,104.097965,30.440809,"1,2,3",-1
3014-190036,通州路下穿隧道（兴象街路口至武汉路路口）,104.09687,30.439549,"1,2,3",-1
3014-190037,剑南大道北段下穿隧道(和盛西街路口至锦晖西三街路口),104.04432,30.591508,"1,2,3",214
3014-190038,剑南大道北段下穿隧道(和盛西街路口至锦晖西三街路口),104.044101,30.589943,"1,2,3",214
3014-190039,剑南大道北段下穿隧道（锦晖西二街路口至和盛西街路口）,104.044267,30.590032,"1,2,3",214
3014-190040,剑南大道北段下穿隧道（锦晖西二街路口至和盛西街路口）,104.044465,30.591235,"1,2,3",214
3014-190041,剑南大道北段下穿隧道（锦尚西三路路口至绕城高速锦城湖站A入口）,104.043777,30.578143,"1,2,3",-1
3014-190042,剑南大道北段下穿隧道（锦尚西三路路口至绕城高速锦城湖站A入口）,104.043719,30.577131,"1,2,3",-1
3014-190043,剑南大道中段下穿隧道（绕城高速锦城湖站B出口至锦尚西二路路口）,104.044039,30.577096,"1,2,3",-1
3014-190044,剑南大道中段下穿隧道（绕城高速锦城湖站B出口至锦尚西二路路口）,104.043974,30.578105,"1,2,3",-1
3014-190045,剑南大道中段下穿隧道（盛兴街路口至盛邦街路口）,104.043756,30.563369,"1,2,3",-1
3014-190046,剑南大道中段下穿隧道（盛兴街路口至盛邦街路口）,104.043749,30.562192,"1,2,3",-1
3014-190047,剑南大道中段下穿隧道（盛安街路口至盛兴街路口）,104.043901,30.562168,"1,2,3",-1
3014-190048,剑南大道中段下穿隧道（盛安街路口至盛兴街路口）,104.043904,30.563235,"1,2,3",-1
3014-190049,剑南大道中段下穿隧道（盛邦街路口至天府四街路口）,104.043786,30.554261,"1,2,3",-1
3014-190050,剑南大道中段下穿隧道（盛邦街路口至天府四街路口）,104.043747,30.551227,"1,2,3",-1
3014-190051,剑南大道中段下穿隧道（盛邦街路口至天府四街路口）,104.043829,30.548747,"1,2,3",-1
3014-190055,剑南大道中段下穿隧道（天府四街路口至华府大道二段路口）,104.043898,30.541132,"1,2,3",-1
3014-190056,剑南大道中段下穿隧道（天府四街路口至华府大道二段路口）,104.043875,30.539587,"1,2,3",-1
3014-190057,剑南大道南段下穿隧道（皇竹林街路口至富盛街路口）,104.044041,30.539582,"1,2,3",-1
3014-190058,剑南大道南段下穿隧道（皇竹林街路口至富盛街路口）,104.044017,30.540877,"1,2,3",-1
3014-190059,剑南大道华府大道下穿隧道出城隧道入口,104.042237,30.529394,"1,2,3",-1
3014-190060,剑南大道华府大道下穿隧道出城隧道出口,104.041523,30.527376,"1,2,3",-1
3014-190061,剑南大道华府大道下穿隧道入口,104.041878,30.527861,"1,2,3",-1
3014-190062,剑南大道华府大道下穿隧道进城隧道出口,104.042463,30.52947,"1,2,3",-1
3014-190067,府城大道东段下穿隧道（天顺路路口至天晖路路口）,104.066199,30.591327,"1,2,3",215
3014-190068,府城大道东段下穿隧道（天顺路路口至天晖路路口）,104.064513,30.591286,"1,2,3",215
3014-190069,府城大道中段下穿隧道（交子北一路路口至名都路路口）,104.064626,30.591124,"1,2,3",215
3014-190070,府城大道中段下穿隧道（交子北一路路口至名都路路口）,104.066198,30.591172,"1,2,3",215
3014-190071,锦城大道下穿隧道（名都路路口至金融城南路路口）,104.066721,30.578251,"1,2",215
3014-190072,天府大道锦城下穿隧道支线内侧隧道出口,104.065116,30.578202,"1,2",215
3014-190073,锦城大道下穿隧道（交子南一路路口至名都路路口）,104.065092,30.57802,"1,2",215
3014-190074,锦城大道下穿隧道（交子南一路路口至名都路路口）,104.066701,30.578042,"1,2",215
3014-190075,天和西二街下穿隧道（中环路火车南站东路段路口至天仁北一街路口）,104.068481,30.609749,"1,2",9
3014-190076,天和西二街下穿隧道（中环路火车南站东路段路口至天仁北一街路口）,104.068618,30.608898,"1,2",9
3014-190077,天和西二街下穿隧道（天仁北一街路口至中环路火车南站东路段路口）,104.068691,30.608965,"1,2",9
3014-190078,天和西二街下穿隧道（天仁北一街路口至中环路火车南站东路段路口）,104.068551,30.609737,"1,2",9
3014-190079,万和路下穿隧道(八宝街路口至武都路路口),104.057901,30.677711,"1,2",96
3014-190080,万和路下穿隧道(八宝街路口至武都路路口),104.058338,30.679313,"1,2",109
3014-190081,万和路下穿隧道(西体路路口至八宝街路口),104.058354,30.679154,"1,2",109
3014-190082,万和路下穿隧道(西体路路口至八宝街路口),104.057978,30.677662,"1,2",96
3014-190084,金牛大道茶店子路下穿隧道（金房苑西路路口至金府路路口）,104.024403,30.702857,"1,2,3",185
3014-190086,一环路西三段下穿隧道（百寿路路口至望仙场街路口）,104.038267,30.662492,"1,2",77
3014-190087,一环路西一段下穿隧道（芳邻路路口至青羊东一路路口）,104.038494,30.662534,"1,2",77
3014-190095,太平园东三街下穿隧道（太平园横一街路口至大悦路路口）,104.009084,30.631124,"1,2",-1
3014-190096,太平园东三街下穿隧道（太平园横一街路口至大悦路路口）,104.008273,30.630613,"1,2",-1
3014-190097,佳悦路下穿隧道（大悦路路口至太平园横一街路口）,104.008426,30.630615,"1,2",-1
3014-190098,佳悦路下穿隧道（大悦路路口至太平园横一街路口）,104.008593,30.630779,"1,2",-1
3014-200275,三环路桂溪立交下桥处(三环路桂溪立交至桂溪西街),104.075423,30.602048,4,1
3014-200276,人民北路一段(星辉西路口至成华街路口),104.069782,30.682869,"1,2",111
3014-200277,大安西路(大安西滨河路口至西马道街路口),104.072907,30.678655,"1,2",-1
3014-200278,武都路(北较场西路口至人民中路三段路口),104.067077,30.681355,"1,2",111
3014-200279,武都路(人民中路三段路口至五丁路口),104.066391,30.681827,"1,2",-1
3014-200280,人民中路三段(文殊院街路口至白家塘街路口),104.067589,30.677792,"1,2",111
3014-200281,人民中路三段(白家塘街路口至文殊院街路口),104.067164,30.677151,"1,2",111
3014-200282,顺城大街(文武路口至正府街路口),104.068406,30.673117,"1,2",153
3014-200283,顺城大街(东打铜街路口至文武路口),104.068449,30.672173,"1,2",153
3014-200284,玉带桥街(顺城大街路口至梵音寺街路口),104.068835,30.669664,"1,2,3",153
3014-200285,玉带桥街(顺城大街路口至梵音寺街路口),104.06905,30.669556,"3,4",153
3014-200286,德盛路(鼓楼北三街路口至马王庙街路口),104.073981,30.671138,"1,2",84
3014-200287,德盛路(太升北路口至铜丝街路口),104.076161,30.670148,"1,2",84
3014-200288,人民中路三段(白家塘街路口至文殊院街路口),104.067359,30.677212,"3,4",111
3014-200289,北大街(西珠市街路口至酱园公所街路口),104.074276,30.675684,"1,2",-1
3014-200290,锦华路一段(二环路东五段至琉璃东路),104.095758,30.623135,4、5,21
3014-200291,解放路二段(城隍东巷路口至西马道街路口),104.07719,30.679799,"1,2",-1
3014-200292,大安东路(小关庙后街路口至太升北路口),104.082916,30.674874,"1,2",-1
3014-200293,清江东路(大庆路口至石人南路口),104.028399,30.671253,"3,4",82
3014-200294,新成彭路(洞子口路口至三环路口),104.047124,30.725426,"1,2",190
3014-200295,华星路(东校场街路口至小关庙后街路口),104.088894,30.670568,"1,2",139
3014-200296,华星路(东较场街路口至游乐园滨河路口),104.090571,30.669492,"1,2",-1
3014-200297,新华大道双林路(猛追湾街路口至猛追湾滨河路口),104.091037,30.663017,"1,2",76
3014-200298,新华大道双林路(天祥街路口至一环路东三段路口),104.092497,30.66246,"2,3",76
3014-200299,东安北路(武成大街路口至三槐树路口),104.088638,30.660445,"1,2",-1
3014-200300,东安南路(望福街路口至大慈寺路口),104.086123,30.657411,"1,2",64
3014-200301,天仙桥北路(天仙桥滨河路口至大慈寺路口),104.084825,30.655503,"1,2",64
3014-200302,蜀都大道东风路(均隆滨河路口至均隆街路口),104.086778,30.655493,"3,4",64
3014-200303,蜀都大道东风路(望平街路口至均隆滨河路口),104.086911,30.655593,"3,4",64
3014-200304,蜀都大道总府路(正科甲巷路口至红星路三段路口),104.078166,30.6595,"1,2,3",71
3014-200305,顺城大街(提督街路口至上翔街路口),104.068269,30.663605,"3,4",154
3014-200306,顺城大街(提督街路口至上翔街路口),104.068328,30.663545,"1,2,3",154
3014-200307,顺城大街(东大街上东大街路口至蜀都大道总府路口),104.06862,30.659562,"3,4",70
3014-200308,东大街上东大街段(顺城大街路口至青石桥北街路口),104.069135,30.658018,"1,2",138
3014-200309,顺城大街(文武路口至正府街路口),104.068299,30.67273,3,153
3014-200310,天仙桥南路(镗钯街路口至大川巷路口),104.081665,30.649076,"1,2",58
3014-200311,滨江东路(青莲上街路口至东南里路口),104.07759,30.647387,"1,2",162
3014-200312,滨江东路(青莲上街路口至天仙桥南路口),104.079014,30.646556,"1,2",162
3014-200313,滨江东路(锦官驿街路口至星桥街路口),104.084908,30.644404,"1,2",162
3014-200314,滨江东路(星桥街路口至锦官驿街路口),104.085765,30.643975,"1,2",162
3014-200315,海棠路与红豆树街交叉路口,104.136381,30.608239,"1,2",3
3014-200316,海棠路(锦江大道至黄葛树街进城方向),104.145063,30.605533,"1,2",-1
3014-200318,滨江中路(人民南路三段路口至大塘坎街路口),104.068256,30.648857,"1,2",160
3014-200319,滨江中路(大塘坎街路口至人民南路二段路口),104.066677,30.649173,"1,2",160
3014-200322,洗面桥街(洗面桥横街路口至洗面桥东二街路口),104.05266,30.641386,"1,2,3",155
3014-200323,洗面桥街(洗面桥东一街路口至利民巷路口),104.053335,30.642447,"1,2,3",155
3014-200324,滨江西路(人民南路二段路口至下南大街路口),104.060954,30.64988,"1,2",157
3014-200325,驿都大道静明路(劼人路口至锦绣大道路口),104.126235,30.621017,3,38
3014-200326,华盛路与航天路交叉路口,104.184231,30.691673,3,-1
3014-200327,锦兴路(青石桥南街路口至大业路口),104.067406,30.654255,"1,2",59
3014-200331,文翁路(文庙前街路口至文庙后街路口),104.056844,30.654433,"2,1",166
3014-200333,锦里中路(南城塘坎街路口至小南街路口),104.051814,30.654455,"1,2",164
3014-200337,大石东路(锦官桥滨河路口至锦里中路口),104.045686,30.654154,"1,2",164
3014-200339,青羊正街(一环路西一段路口至琴台路口),104.041352,30.660721,"1,2",-1
3014-200340,青羊正街(琴台路口至一环路西二段路口),104.042033,30.660555,3,-1
3014-200341,蜀都大道十二桥路(西安南路口至琴台路口),104.043865,30.665654,"3,4",78
3014-200342,蜀都大道十二桥路(西安南路口至一环路西三段路口),104.042031,30.666702,"4,5",78
3014-200343,西安南路(枣子巷路口至十二桥路口),104.044735,30.668069,1,78
3014-200344,东城根南街(西御街路口至蜀都大道人民西路口),104.058355,30.659907,"2,3",167
3014-200345,文翁路(祠堂街路口至陕西街路口),104.058203,30.65798,"1,2",167
3014-200346,蜀都大道少城路(东城根上街路口至祠堂街路口),104.05748,30.660809,"3,4",78
3014-200347,蜀都大道少城路(小南街路口至祠堂街路口),104.054898,30.661609,"3,4",78
3014-200349,东城根上街(商业街路口至仁厚街路口),104.057994,30.666604,"1,2",152
3014-200350,人民中路一段(西御河沿街路口至蜀都大道路口),104.063223,30.666432,"1,2",147
3014-200351,人民中路一段(蜀都大道人民东路口至东御河沿街路口),104.06318,30.666647,"1,2",147
3014-200352,羊市街(东城根中街路口至西华门街路口),104.058517,30.669335,"1,2",149
3014-200355,羊市街(西华门街路口至东城根中街路口),104.058686,30.669327,"1,2",149
3014-200356,人民中路二段(江汉路口至正府街路口),104.06485,30.674194,"1,2",80
3014-200357,人民中路二段(青龙街路口至正府街路口),104.063692,30.672248,"1,2",80
3014-200358,八宝街(东城根下街路口至老东城根街路口),104.058941,30.673647,"1,2,3",85
3014-200359,滨江西路(人民南路二段路口至下南大街路口),104.060728,30.64992,3,157
3014-200360,槐树街(长顺下街路口至中同仁路口),104.050814,30.672365,"1,2",-1
3014-200361,槐树街(中同仁路口至长顺中街路口),104.050464,30.672634,"1,2",-1
3014-200362,永陵路(三洞桥路口至抚琴南路口),104.045026,30.67556,"1,2",-1
3014-200363,永陵路(抚琴南路口至西安北路口),104.042373,30.676811,"1,2",-1
3014-200364,花牌坊街(西林巷路口至一环路北一段路口),104.044001,30.682514,"4,5",100
3014-200365,花牌坊街(王家巷路口至三洞桥路口),104.047081,30.679803,"4,5",100
3014-200366,沙湾路(一环路北一段路口至沙湾东一路口),104.04935,30.688593,"-1,1",120
3014-200367,西体路(通锦桥路口至北较场西路口),104.054226,30.681932,"1,2",104
3014-200368,西体路(西体北路口至通锦路口),104.054776,30.682105,"1,2",104
3014-200369,金仙桥路(西月城街路口至通锦桥路口),104.049578,30.679085,"1,2",100
3014-200372,江汉路(人民中路三段路口至北较场西路口),104.060751,30.677247,"1,2,3",97
3014-200373,西月城街(同心路口至饮马河街路口),104.050715,30.677551,"3,4",100
3014-200374,文翁路(祠堂街路口至陕西街路口),104.058227,30.657654,3,167
3014-200375,万和路(宁夏街路口至八宝街路口),104.057797,30.67616,"1,2,3",96
3014-200376,西月城街(同心路口至饮马河街路口),104.051105,30.677265,"1,2,3",100
3014-200377,西大街(上同仁路口至长顺下街路口),104.051902,30.676763,"1,2",100
3014-200379,文翁路(文庙后街路口至文庙前街路口),104.057549,30.655358,"-1,1",166
3014-200384,蜀都大道十二桥路(西安南路口至琴台路口),104.04376,30.665689,"1,2",78
3014-200385,蜀都大道十二桥路(西安南路口至一环路西三段路口),104.041303,30.667122,"1,2",78
3014-200386,蜀都大道东风路(均隆滨河路口至均隆街路口),104.086671,30.655453,"1,2",64
3014-200387,蜀都大道东风路(望平街路口至均隆滨河路口),104.086639,30.655684,"1,2",64
3014-200392,花牌坊街(西林巷路口至一环路北一段路口),104.043724,30.682738,"1,2,3",100
3014-200393,花牌坊街(王家巷路口至三洞桥路口),104.046804,30.679866,"1,2,3",100
3014-200399,顺城大街(东大街上东大街路口至蜀都大道总府路口),104.068449,30.659562,"1,2",70
3014-200400,蜀都大道少城路(东城根上街路口至祠堂街路口),104.057496,30.660778,"1,2",78
3014-200401,蜀都大道少城路(小南街路口至祠堂街路口),104.054831,30.6619,"1,2",78
3014-200402,西大街(上同仁路口至长顺下街路口),104.051812,30.676847,"3,4",100
3014-200425,锦华路一段(二环路东五段至琉璃东路),104.095739,30.623071,1、2、3,21
3014-200426,解放路二段(城隍东巷路口至西马道街路口),104.077353,30.679992,3,-1
3014-20143,中环路金府路段(茶店子西街至花照壁东街),104.025614,30.709481, ,187
3014-210228,白龙江路与龙泉山路交叉路口,104.137597,30.635199,"1,2",17
3014-210231,新光华街与人民南路一段交叉路口,104.064767,30.655236,"4,5",61
3014-210245,人民南路一段与新光华街口,104.063559,30.655839,"1,2,3",140
3014-210247,青城山路与青衣江路交叉路口,104.134375,30.628682,"1,2",17
3014-210257,龙泉山路与金马河路交叉路口,104.14027,30.637064,"-1,1",37
3014-210265,雅砻江路与丹景山路交叉路口,104.136433,30.633301,"1,2",17
3014-210270,芙蓉西路与红豆树街交叉路口,104.138799,30.611102,"1,2,3",3
3014-210274,芙蓉西路与枫树街交叉路口,104.142053,30.608995,"1,2,3",-1
3014-210378,一环北四段(马鞍北路口至马鞍街路口),104.086257,30.681901,"1,2",102
3014-220001,天府大道与府城大道交叉口北口进口处（主道）,104.065312,30.592319, ,215
3014-220002,天府大道与府城大道交叉路口北口进口（主道）,104.065263,30.592291,"3,4,5",215
3014-220003,天府大道与府城大道交叉路口北口进口（辅道）,104.06507,30.59231,"1,2",215
3014-220004,天府大道与锦尚东路交叉口北口进口处(主道）,104.065607,30.582249,"1,2",215
3014-220005,天府大道与锦尚东路交叉口北口进口处(主道）,104.065548,30.582094,"3,4,5",215
3014-220006,天府大道与锦尚东路交叉口北口进口处(辅道）,104.065359,30.582135,"1,2",215
3014-220008,环球中心下穿由北向南出口主道进辅道处（辅道）,104.065963,30.565217,"5,6",215
3014-220009,环球中心下穿由北向南出口主道进辅道处（辅道）,104.065959,30.565317,"7,8,9",215
3014-220010,天府大道与天府一街交叉口西口进口处,104.065127,30.562949,"4,5",215
3014-220011,天府大道与天府一街交叉口西口进口处,104.065232,30.562949,"1,2,3",215
3014-220012,天府大道与天府一街交叉口东口出口处,104.067899,30.562909,1.2.3,215
3014-220013,世纪城西大门1,104.068244,30.558619, ,215
3014-220014,世纪城西大门2,104.067309,30.557972,1,215
3014-220015,天府大道与天府二街交叉口西口进口处,104.065456,30.553936,"1,2,3",215
3014-220016,天府大道与天府二街交叉口西口进口处,104.065431,30.553929, ,215
3014-220017,天府大道与天府二街交叉口南口进口处（主道）,104.066704,30.552602,"1,2",215
3014-220018,天府大道与天府二街交叉口南口进口处（主道）,104.066756,30.552602,"3,4,5",215
3014-220019,天府大道与天府二街交叉口南口进口处（辅道）,104.066932,30.552683,"1,2",215
3014-220020,天府大道与天府三街交叉口西口出口处,104.066223,30.549342, ,215
3014-220021,天府大道与天府三街交叉口南口出口处,104.066868,30.548422,"1,2,3",215
3014-220022,天府大道与天府三街交叉口南口进口处,104.066849,30.548155,"4,5",215
3014-220023,天府大道与天府三街交叉路口南口进口（辅道）,104.067068,30.548022,"1,2",215
3014-220024,天府大道与天府三街交叉口东口出口处,104.067813,30.549272, ,215
3014-220025,天府大道与天府三街交叉口东口出口处,104.067983,30.549306, ,215
3014-220026,天府大道与天府四街交叉口东口出口处,104.068154,30.544998, ,215
3014-220027,天府大道与天府四街交叉口东口出口处,104.068258,30.544844, ,215
3014-220028,天府大道与天府四街交叉口南口进口处（主道）,104.066968,30.543758,"1,2",215
3014-220029,天府大道与天府四街交叉口南口进口处（主道）,104.067016,30.543682,"3,4,5",215
3014-220030,天府大道与天府四街交叉口南口进口处（辅道）,104.067196,30.543663,"1,2",215
3014-220032,世纪城南路与世纪城路交叉口南口进口处,104.072554,30.553554, ,-1
3014-220033,世纪城南路与中和大道交叉口南口进口处,104.070963,30.54906, ,-1
3014-220034,梓州大道与中和大道交叉口西口出口处,104.085635,30.543461, ,-1
3014-220036,科华南路与世纪城东路交叉口南口进口处,104.076203,30.564732, ,216
3014-220037,中和桥上桥匝道1,104.079638,30.56632, ,-1
3014-220038,中和桥上桥匝道2,104.078287,30.565192, ,216
3014-220039,科华南路与世纪城东路交叉口西口出口处,104.075289,30.565159, ,216
3014-220040,世纪城路与世纪城东路交叉口西口进口处1,104.073185,30.563953, ,216
3014-220041,世纪城路与世纪城东路交叉口西口进口处2,104.074341,30.563827, ,216
3014-220043,金融城下穿由北向南出口处（辅道）,104.074914,30.57073, ,216
3014-220044,益州大道与天府三街交叉口东口出口处,104.054958,30.549324, ,-1
3014-220045,益州大道与天府二街交叉口东口出口处,104.055176,30.55373, ,-1
3014-220046,益州大道与天府二街交叉口东口出口处,104.055203,30.553712, ,-1
3014-220047,益州大道与天府一街交叉口东口出口处,104.054939,30.562804, ,-1
3014-220107,环球中心下穿由北向南出口主道进辅道处（主道）,104.06614,30.56515,"1,2,3,4",215
3014-220131,天华路与世纪城路交叉口东口出口处,104.06982,30.553969, ,-1
3014-220135,天府大道与天府二街东口出口处,104.067512,30.553859, ,215
3014-220142,金融城下穿由北向南出口处(主道),104.074809,30.571122, ,216
3014-221401,龙泉山路（金马河路至迎晖路）,104.14095,30.638382,"1,2",37
3014-221402,龙门山路与迎晖路交叉路口,104.143439,30.637502,"1,2",37
3014-221403,邛崃山路（迎晖路至金马河路）,104.144313,30.63715,"1,2,3",37
3014-221404,东虹路与迎晖路交叉路口,104.146093,30.636936,"1,2",37
3014-221405,金马河路（中环路锦绣大道段至龙泉山路）,104.136882,30.637193,"1,2",17
3014-221406,白龙江高架入口处（九寨沟路至峨眉山路）,104.132242,30.637188,"1,2,3",41
3014-221407,金马河路与龙泉山路交叉路口,104.139633,30.636003,"1,2",-1
3014-221408,龙门山路与金马河路交叉路口,104.142401,30.634721,"1,2",-1
3014-221409,金马河路与龙门山路交叉路口,104.142902,30.635106,"1,2",-1
3014-221410,金马河路高架入口（邛崃山路至龙门山路）,104.143964,30.634747,"1,2",-1
3014-221411,金马河路与邛崃山路交叉路口,104.144945,30.634416,"1,2",-1
3014-221412,龙门山路与白龙江路交叉路口,104.141962,30.633481,"1,2",-1
3014-221413,白龙江路与龙门山路交叉路口,104.142347,30.633632,"1,2",-1
3014-221414,雅砻江路与丹景山路交叉路口,104.13653,30.633205,"1,2",17
3014-221415,嘉陵江路与邛崃山路交叉路口,104.141734,30.631287,"3,4",-1
3014-221416,嘉陵江路与邛崃山路交叉路口,104.14174,30.631312,"1,2",-1
3014-221417,邛崃山路（白龙江路至嘉陵江路）,104.143126,30.633329,"1,2",-1
3014-221418,沱江路（中环路锦绣大道段至岷江路）,104.135044,30.631312,"1,2,3",17
3014-221419,青城山路(沱江路至嘉陵江路）,104.134969,30.630197,"1,2",17
3014-221420,金沙江路与邛崃山路交叉路口,104.142431,30.628159,5.6.7,10
3014-221421,金沙江路与邛崃山路交叉路口,104.142377,30.628212,"2,3,4",10
3014-221422,青衣江路与青城山路交叉路口,104.134767,30.628936,"1,2",17
3014-221423,岷江路与龙门山路交叉路口,104.138094,30.626446,"1,2",-1
3014-221424,岷江路与龙门山路交叉路口,104.138084,30.625945,"3,4,5",-1
3014-221425,岷江路与龙门山路交叉路口,104.138067,30.625971,"1,2",-1
3014-221426,岷江路高架桥入口（龙门山路至邛崃山路）,104.137768,30.625664,"1,2",-1
3014-221427,岷江路与邛崃山路交叉路口,104.139271,30.625108,"1,2",-1
3014-221428,岷江路与邛崃山路交叉路口,104.139126,30.625146,"1,2",-1
3014-221429,岷江路（邛崃山路至龙门山路）,104.13871,30.625691,"1,2",-1
3014-221430,岷江路（邛崃山路至龙门山路）,104.139126,30.625522,"3,4",-1
3014-221431,邛崃山路（金沙江路至岷江路）,104.14033,30.625672,"1,2",-1
3014-221432,邛崃山路与岷江路交叉路口,104.140343,30.625676,"2,3",-1
3014-221433,邛崃山路与岷江路交叉路口,104.140349,30.625678,1,-1
3014-221434,邛崃山路（金沙江路至岷江路）,104.14034,30.62567,"3,4",-1
3014-221435,邛崃山路与岷江路交叉路口,104.139895,30.624301,"1,2,3",-1
3014-221436,邛崃山路与岷江路交叉路口,104.139886,30.624303,4,-1
3014-221437,岷江路与邛崃山路交叉路口,104.141073,30.624818,"1,2,3",10
3014-221438,岷江路与邛崃山路交叉路口,104.132852,30.628118,"1,2",17
3014-221439,岷江路与邛崃山路交叉路口,104.141016,30.62485,"1,2",10
3014-221440,青城山路与大渡河路交叉路口,104.133085,30.625481,1,17
3014-221441,青城山路与大渡河路交叉路口,104.132937,30.625777,1,17
3014-221442,青城山路与大渡河路交叉路口,104.13308,30.62548,1,17
3014-221443,青城山路与大渡河路交叉路口,104.132744,30.625322,1,17
3014-221444,龙泉山路与大渡河路交叉路口,104.134235,30.625467,1,-1
3014-221445,龙泉山路与大渡河路交叉路口,104.133756,30.625214,1,-1
3014-221446,龙泉山路与大渡河路交叉路口,104.133843,30.624822,1,-1
3014-221447,龙泉山路与大渡河路交叉路口,104.13442,30.625027,"1,2,3",-1
3014-221448,大渡河路与龙门山路交叉路口,104.136511,30.624651,1,-1
3014-221449,大渡河路与龙门山路交叉路口,104.136561,30.624256,1,-1
3014-221450,大渡河路与龙门山路交叉路口,104.137551,30.623621,1,-1
3014-221451,大渡河路与云顶山路交叉路口,104.137377,30.623946,1,-1
3014-221452,大渡河路与云顶山路交叉路口,104.13777,30.624097,1,-1
3014-221453,大渡河路与云顶山路交叉路口,104.137889,30.623773,1,-1
3014-221454,大渡河路与云顶山路交叉路口,104.137544,30.623604,1,-1
3014-221455,大渡河路与邛崃山路交叉路口,104.139274,30.623411,"1,2,3",-1
3014-221456,大渡河路与邛崃山路交叉路口,104.138907,30.623425,"1,2",-1
3014-221457,青城山路与金沙江路交叉路口,104.132209,30.624154,1,17
3014-221458,安宁河路与青城山路交叉路口,104.131835,30.623975,"1,2",17
3014-221459,安宁河路与青城山路交叉路口,104.13791,30.62377,"1,2,3",-1
3014-221460,龙泉山路与安宁河路交叉路口,104.133396,30.623756,"1,2",-1
3014-221461,龙泉山路与安宁河路交叉路口,104.132973,30.62356,"1,2,3",-1
3014-221462,安宁河路与龙门山路交叉路口,104.135435,30.623157,"1,2",-1
3014-221463,安宁河路与龙门山路交叉路口,104.134957,30.622424,"1,2",-1
3014-221464,安宁河路与龙门山路交叉路口,104.135492,30.622659,"1,2,3",-1
3014-221465,安宁河路与云顶山路交叉路口,104.136897,30.622467,"1,2",-1
3014-221466,安宁河路与云顶山路交叉路口,104.136963,30.622083,"1,2,3",-1
3014-221467,安宁河路与邛崃山路交叉路口,104.137862,30.62169,"1,2",-1
3014-221468,安宁河路与邛崃山路交叉路口,104.137901,30.621685,"3,4",-1
3014-221469,安宁河路与邛崃山路交叉路口,104.13917,30.623225,"1,2",-1
3014-221470,邛崃山路与大观里北交叉路口,104.136738,30.619943,"1,2",-1
3014-221471,大观里北与邛崃山路西交叉路口,104.135962,30.620025,1,-1
3014-221472,邛崃山路与大观里北交叉路口,104.135978,30.619247,1,-1
3014-221473,邛崃山路与大观里南交叉路口,104.135683,30.619009,1,16
3014-221474,邛崃山路与大观里南交叉路口,104.134598,30.618448,1,16
3014-221475,邛崃山路与大观里南交叉路口,104.134634,30.618069,"1,2",16
3014-221476,龙门山路（驿都大道至渠江路）,104.132505,30.619157,"1,2,3,4",16
3014-221477,嘉陵江路高架入口（邛崃山路至三环路）,104.143485,30.631132,"1,2",-1
3014-221478,嘉陵江路（邛崃山路至三环路）,104.143383,30.631133,"3,4,5",-1
3014-221479,金马河路与邛崃山路交叉路口,104.143746,30.634737,"1,2,3",-1
3014-221480,金马河路与中环路锦绣大道段交叉路口,104.13687,30.637269,"1,2",17
3014-221481,白龙江路与九寨沟路交叉路口,104.132102,30.637164,"3,4,5",41
3014-221482,白龙江路与九寨沟路交叉路口,104.132007,30.637176,"1,2",41
3014-221483,岷江路辅路（九寨沟路至峨眉山路）,104.128557,30.629486,"3,4,5",-1
3014-221484,岷江路高架桥入口处（九寨沟路至峨眉山路）,104.128431,30.629809,"1,2",-1
3014-221485,邛崃山路高架（金沙江路至岷江路）,104.144659,30.635836,"1,2",37
3014-221486,邛崃山路高架（金沙江路至岷江路）,104.144618,30.635758,"3,4",37
3014-221487,邛崃山路（嘉陵江路至金沙江路）,104.144648,30.635736,"1,2,3",37
3014-221488,中环路锦绣大道段（嘉陵江路至沱江路）,104.13306,30.630068,"1,2",17
3014-221489,岷江路跨线桥（邛崃山路至三环路）,104.141701,30.624209,"1,2",10
3014-221490,岷江路跨线桥（青城山路至龙泉山路）,104.134337,30.627212,"1,2,3",17
3014-221491,岷江路跨线桥（邛崃山路至龙门山路）,104.137915,30.625914,"1,2,3",-1
3014-221492,岷江路跨线桥（邛崃山路至三环路）,104.141332,30.624249,"4,5",10
3014-221493,东站送站南平台出口处,104.136923,30.630714,"1,2",-1
3014-221494,东站北平台高架（金马河路至雅砻江路）,104.138101,30.634062,"1,2",-1
3014-221495,东站送站南平台入口处,104.139743,30.629746,"1,2,3,4",-1
3014-221496,邛崃山路（迎晖路至金马河路）,104.144335,30.636765,"1,2",37
3014-221497,中环路下穿（安宁河路至沱江路）,104.13451,30.633051,"1,2,3",17
3014-222501,金辉路（万卉三路路口至IT大道隧道口）,103.979624,30.687616,"1,2,3",-1
3014-222502,金辉路与万卉三路交叉路口,103.979508,30.687429,"1,2,3",-1
3014-222503,金辉路与万卉三路交叉路口,103.979928,30.686958,"2,3",-1
3014-222504,金辉路（万卉三路路口至金福北路路口）,103.979813,30.686884,"1,2,3",-1
3014-222505,万卉三路下穿隧道（金辉路路口至西货站路路口）,103.979102,30.687141,"1,2",-1
3014-222506,万卉三路（金辉路路口至万卉三路下穿隧道口）,103.979119,30.687138,"3,4",-1
3014-222507,万卉三路与金辉路交叉路口,103.979321,30.687181,"4,5,6",-1
3014-222508,万卉三路与金辉路交叉路口,103.979298,30.687161,"1,2",-1
3014-222509,万卉三路（西货站路路口至金辉路路口）,103.973792,30.686048,"1,2",-1
3014-222510,万卉三路（西货站路路口至金辉路路口）,103.973729,30.686066,"3,4,5",-1
3014-222511,万卉三路与西货站路交叉路口,103.973385,30.686181,"4,5,6",-1
3014-222512,万卉三路与西货站路交叉路口,103.973361,30.686165,"1,2,3",-1
3014-222517,西货站路（西站二路路口至西站一路路口）,103.974301,30.690665,"1,2,3,4",-1
3014-222518,西货站路（万通路路口至武青北路跨线桥）,103.973551,30.689341,"1,2,3,4",-1
3014-222519,西货站路与万通路交叉路口,103.973425,30.689572,"1,2,3,4",-1
3014-222520,西货站路与万通路交叉路口,103.973342,30.688877,"2,3,4,5",-1
3014-222521,西货站路（万通路路口至瑞联东路口）,103.973147,30.688931,"1,2",-1
3014-222522,万卉三路下穿隧道（金辉路路口至西货站路路口）,103.976626,30.686486,"1,2",-1
3014-222523,万卉三路下穿隧道（金辉路路口至西货站路路口）,103.977642,30.686594,"1,2",-1
3014-222524,万通路与西货站路交叉路口,103.973724,30.688887,"1,2",-1
3014-222525,万卉三路（金辉路路口至西货站路路口,103.979043,30.687109,"2,3,4,5",-1
3014-222526,万卉三路下穿隧道（西货站路路口至金辉路路口）,103.977173,30.686424,"1,2",-1
3014-222527,万卉三路下穿隧道（西货站路路口至金辉路路口）,103.977718,30.686455,"1,2",-1
3014-222528,西货站路与万卉三路交叉路口,103.973165,30.685105,"1,2,3",-1
3014-222529,西货站路（瑞联东路路口至万花二路路口）,103.972908,30.684949,"1,2,3,4",-1
3014-222530,万畅路与西站二路交叉路口,103.97431,30.6875,"1,2",-1
3014-222531,万畅路与西站二路交叉路口,103.974306,30.687597,"1,2",-1
3014-222532,西站一路与万通路交叉路口,103.976384,30.689751,"-1,1",-1
3014-230054,天府大道北段环球中心下穿隧道出城入口处,104.065796,30.5759,"3,4",215
3014-230055,人民中路一段(蜀都大道人民东路口至东御河沿街路口),104.063162,30.66686,3,147
3014-230056,蜀汉路(蜀通街路口至蜀蓉路口),104.024666,30.686852,"3,4",113
3014-230088,成华大道龙潭路与龙港路交叉路口,104.161693,30.702479,"3,4",222
3014-230089,龙港路(龙港一路路口至成华大道龙潭路路口),104.162258,30.702121,"3,4",222
3014-230091,新华大道双林路(天祥街路口至一环路东三段路口),104.092363,30.662556,3,76
3014-230112,东大路(汇泉南路口至牛沙北路口),104.107139,30.633633,3,-1
3014-230113,东大路(古雅坡路口至汇泉北路口),104.109583,30.641198,2,-1
3014-231001,金福北路与金辉路交叉路口,103.982841,30.685232,"3,4",-1
3014-231002,武侯大道顺江段(大悦路口至武侯大道下穿隧道),104.000719,30.633986,1,27
3014-231003,新华大道双林路(双华路口至双林中横路口),104.10313,30.657368,"2,3",66
3014-231004,蜀都大道水碾河路与经华北路交叉路口,104.103729,30.647515,"3,4",50
3014-231005,金辉路(清百路口至两河路口),103.983153,30.694564,"2,3",-1
3014-231006,永丰路(肖家河沿街路口至芳沁街路口),104.045418,30.630064,1,33
3014-231007,锦华路二段(经天路口至锦绣大道路口),104.095694,30.60581,"3,4",6
3014-231008,剑南大道南段与天府五街交叉路口,104.044164,30.538272,"3,4",-1
3014-231009,双庆路与双成二路交叉路口,104.115358,30.653304,"2,3",51
3014-231010,双庆路与双成二路交叉路口,104.115348,30.65334,3,51
3014-231011,天府四街与富华南路交叉路口,104.040429,30.544753,"1,2,3",-1
3014-231012,天府四街与富华南路交叉路口,104.039148,30.544561,"3,4",-1
3014-231013,天府四街与富华南路交叉路口,104.039121,30.544579,"1,2",-1
3014-231014,荆竹坝东街与双荆北路交叉路口,104.096196,30.715884,"-1,1,2",-1
3014-231015,荆竹坝东街与荆翠南一街交叉路口,104.095889,30.714079,"-1,1,2",-1
3014-231016,武兴二路与武科东一路交叉路口,103.986819,30.630528,"1,2,3",211
3014-231017,武兴二路与武科东一路交叉路口,103.986653,30.630488,"1,2,3",211
3014-231018,武兴四路与武科西一路交叉路口,103.978502,30.626291,"1,2,3",211
3014-231019,武兴四路与武科西一路交叉路口,103.978172,30.626611,"1,2,3",211
3014-231020,武兴四路与武科西二路交叉路口,103.976949,30.62892,"1,2,3",-1
3014-231021,武兴四路与武科西二路交叉路口,103.976776,30.628848,"1,2,3",-1
3014-231022,武兴四路与武科西二路交叉路口,103.9767,30.628329,"1,2,3",-1
3014-231023,武兴四路与武科西五路交叉路口,103.973685,30.635225,"1,2,3",-1
3014-231024,高新大道创业路成雅高速引桥(新乐路口至创业路下穿隧道),104.034189,30.612072,2,11
3014-231025,西华门街与羊市街交叉路口,104.059878,30.669254,"-1,1",149
3014-231026,人民中路一段(羊市街至西御河沿街),104.063078,30.668343,"1,2",147
3014-231027,人民中路一段(羊市街至西御河沿街),104.063052,30.668983,3,147
3014-231028,西玉龙街(人民中路一段路口至东华门街路口),104.065767,30.669451,3,150
3014-231029,西玉龙街(人民中路一段路口至东华门街路口),104.065798,30.669439,"1,2",150
3014-231030,人民中路二段(西玉龙街至青龙街),104.063172,30.670615,1,148
3014-231031,人民中路二段(西玉龙街至青龙街),104.063162,30.670879,"3,4",148
3014-231032,万年路(积步街至禾田路),104.118916,30.658191,"1,2",-1
3014-231033,万年路(积步街至禾田路),104.118855,30.658214,"3,4",-1
3014-231034,东坡路(瑞星路路口至东坡北二路路口),103.989634,30.663933,"1,2",-1
3014-231035,东坡路(东坡北一路至瑞星路),103.992816,30.663948,"1,2",-1
3014-231036,蓉都大道将军碑路(熊猫大道路口至三环路路口),104.105005,30.727206,5,224
3014-231037,蓉都大道将军碑路(熊猫大道路口至三环路路口),104.105097,30.727304,"3,4",224
3014-231038,蓉都大道将军碑路(熊猫大道路口至三环路路口),104.105144,30.727492,"1,2",224
3014-231047,G4202(成都绕城高速)19km+050m,104.20498,30.655658, ,-1
3014-241011,金祥南支路与三环路交叉路口东出口,103.99065,30.678384,1,95
3014-241043,三环路主道川陕立交至成绵立交段,104.111841,30.720075,3、4,136
3014-241045,三环路主道成绵立交至蜀龙立交段,104.139027,30.712227,3.4,135
3014-241046,三环路主道川陕立交至成绵立交段,104.111953,30.720067,1.2,136
3014-241049,三环路主道成绵立交至蜀龙立交段,104.13895,30.71216,1、2,135
3014-241063,金祥南支路与三环路交叉路口东出口,103.990865,30.678359,1,95
3014-241064,金福路与三环路交叉路口西出口,103.99082,30.681137,1,95
3014-241084,三环路成彭立交匝道(三环路交大立交至新成彭路),104.052631,30.728223,1、2,194
3014-241093,三环路川陕立交匝道(三环路凤凰立交至蓉都大道),104.102221,30.72104,1,137
3014-243011,三环路川陕立交匝道(三环路成绵立交至昭觉寺南路),104.103644,30.721376,1,136
3014-243021,三环路天府立交匝道(三环路桂溪立交至人民南路四段),104.066343,30.601599,1,2
3014-243022,三环路天府立交匝道(天府大道一段至三环路桂溪立交),104.06608,30.599268,1,215
3014-243023,三环路天府立交匝道(三环路蓝天立交至天府大道一段),104.063819,30.599624,1,183
3014-243024,三环路天府立交匝道(人民南路四段至三环路蓝天立交),104.063999,30.601718,1,8
3014-243041,三环路航天立交匝道(三环路娇子立交至静明路),104.138132,30.612972,1,3
3014-243042,三环路航天立交匝道(龙泉驿至三环路成渝立交)合流处,104.137458,30.613958,1，2,16
3014-243045,三环路航天立交匝道(三环路成渝立交至龙泉驿)分流处,104.139475,30.615547,1,10
3014-243064,三环路成南立交匝道(绕城高速螺蛳坝立交至三环路龙潭立交),104.161274,30.673844,1,128
3014-243065,三环路成南立交匝道(沪蓉高速至三环路十陵立交)分流处,104.161063,30.673309,1,128
3014-243071,三环路龙潭立交匝道(龙潭寺西路至三环路成绵立交),104.158526,30.700672,1.2,135
3014-243072,三环路龙潭立交匝道(三环路成绵立交至十里店路),104.15801,30.702169,1、2,135
3014-243073,三环路龙潭立交匝道(龙潭寺西路至三环路成南立交),104.157538,30.701966,1,135
3014-243075,三环路龙潭立交匝道(十里店路至三环路成南立交),104.158373,30.695368,1.2,128
3014-243076,三环路龙潭立交匝道(十里店路至三环路成绵立交),104.157441,30.7019,1、2,135
3014-243077,三环路龙潭立交匝道(三环路成绵立交至龙潭寺西路),104.158336,30.701388,1,135
3014-243083,三环路成绵立交匝道(三环路龙潭立交至成绵高速),104.135224,30.713788,1,135
3014-243085,三环路成绵立交匝道(二环路刃具立交至三环路龙潭立交),104.135207,30.713512,1,135
3014-243087,三环路成绵立交匝道(三环路川陕立交至青龙场高架桥)合流处,104.131605,30.712448,1,206
3014-243088,三环路成绵立交匝道(绕城高速白鹤林立交至三环路川陕立交),104.13447,30.716155,1,223
3014-243102,三环路苏坡立交匝道(三环路草金立交至日月大道一段),103.98868,30.676492,1,94
3014-243103,金福路与三环路交叉路口西出口,103.988601,30.679331,1,95
3014-243112,三环路武侯立交匝道(武侯大道顺江段至三环路草金立交),103.995473,30.634138,1,44
3014-243113,三环路武侯立交匝道(三环路川藏立交至武侯大道顺江段),103.997929,30.630356,1,26
3014-243114,三环路武侯立交匝道(武侯大道双楠段至三环路川藏立交),103.998498,30.633253,1,27
3014-243121,三环路东客站立交匝道(东客站至三环路成渝立交),104.14829,30.634411,1.2,10
3014-243122,三环路东客站立交匝道(三环路成渝立交至东客站),104.144083,30.627642,1、2,10
3014-243123,三环路东客站立交匝道(三环路航天立交至东客站),104.143899,30.625079,1、2,10
3014-243124,三环路东客站立交匝道(三环路成渝立交至三环路航天立交),104.142472,30.621396,1.2,10
3014-243131,三环路十陵立交匝道(三环路成渝立交至槐树店路),104.154705,30.648945,1,32
3014-243132,三环路十陵立交匝道(槐树店路至三环路成南立交),104.156475,30.654018,1,46
3014-243134,三环路十陵立交匝道(三环路成南立交至成洛大道),104.155836,30.654095,1.2,46
3014-243141,三环路草金立交匝道(三环路苏坡立交至晋阳路),103.982477,30.653447,1,93
3014-243142,三环路草金立交匝道(三环路武侯立交至机九路),103.985876,30.648019,1,44
3014-243143,三环路草金立交匝道(机九路至三环路苏坡立交),103.982946,30.649964,1,210
3014-243151,三环路交大立交匝道(西华大道至三环路金牛立交),104.029935,30.717042,1,134
3014-243152,三环路交大立交匝道(三环路金牛立交至交大路),104.030518,30.716574,1,134
3014-243153,三环路交大立交匝道(三环路成彭立交至西华大道),104.032162,30.71734,1,188
3014-243161,三环路成彭立交匝道(三环路交大立交至九里堤北路),104.04445,30.727567,1、2,192
3014-243162,三环路成彭立交匝道(三环路凤凰立交至新成彭路),104.049178,30.728759,1.2,194
3014-243163,三环路成彭立交匝道(新成彭路至三环路交大立交),104.041081,30.725538,1、2,192
3014-251001,益新大道与益园二路交叉路口,104.030117,30.589218,"1,2,3",-1
3014-251007,益新大道与益园三路交叉路口,104.027549,30.587703,"1,2,3",-1
3014-251011,锦城大道(益新大道路口至火车南站西路路口),104.023616,30.584374,"1,2,3",-1
3014-251012,锦城大道与益新大道交叉路口,104.023492,30.584159,"2,3,4",-1
3014-251013,花照壁下横街与一品天下大街段交叉路口,104.031009,30.700729,"1,2",130
3014-251014,二仙桥北路与民兴路交叉路口,104.13767,30.695276,"3,4,5",-1
3014-251015,新光华街与烟袋巷路交叉路口,104.065741,30.654948,"4,5,6",61
3014-251016,新光华街与烟袋巷路交叉路口,104.065611,30.65496,7,61
3014-251017,交大路与交桂路交叉路口,104.042791,30.703539,"1,2",132
3014-251018,交大路与交桂路交叉路口,104.042677,30.703665,"3,4,5",132
3014-251019,二仙桥北路与民兴路交叉路口,104.137638,30.695323,"1,2",-1
3014-251021,交大路（二环路北一段路口至群星路口),104.046555,30.698289,"3,4",132
3014-251022,交大路（二环路北一段路口至群星路口),104.046518,30.698268,"1,2",132
3014-251024,交大路与群星路交叉路口,104.044587,30.701195,"1,2",132
3014-251025,银河路与交大路交叉路口,104.043789,30.701423,"1,2,3",132
3014-251026,星河路与交大路交叉路口,104.039393,30.708822,"1,2,3",189
3014-251027,长兴街(交大路路口至长青横街路口),104.03785,30.710477,"1,2",189
3014-251028,交大路与金府路交叉路口,104.03478,30.713855,"1,2",189
3014-251029,成双大道中段与鞋都南一路交叉路口,103.983253,30.602083,4,-1
3014-251030,成双大道中段与鞋都南一路交叉路口,103.983045,30.602124,"1,2,3",-1
3014-251031,成双大道中段与鞋都南一路交叉路口,103.981598,30.602158,"1,2,3",-1
3014-251032,成双大道中段与鞋都南一路交叉路口,103.980923,30.602448,4,-1
3014-251033,智远大道与双凤三路交叉路口,103.977484,30.61781,6,-1
3014-251034,智远大道(来凤三路路口至来凤四路路口),103.977535,30.617864,5,-1
3014-251037,成双大道中段与鞋都南四路交叉路口,103.971141,30.606704,5,-1
3014-251039,武侯大道铁佛段与成双大道中段交叉路口,103.985211,30.602316,"3,4,5,6",-1
3014-251041,交大路(银河路路口至银桂桥三巷路口),104.044366,30.701068,"1,2,3",132
3014-251042,茶店子路（金府路路口与子星路路口）,104.021521,30.705059,"1,2",185
3014-251043,茶店子路（金府路路口与子星路路口）,104.021293,30.705222,3,185
3014-251044,茶店子路（子星路路口与金府路路口）,104.023526,30.703659,"1,2,3",185
3014-251045,茶店子路与子星路交叉路口,104.023945,30.702868,"1,2,3",185
3014-251046,子星路(茶店子路路口至八一路路口),104.025046,30.702726,"1,2,3",185
3014-251047,中环路一品天下大街段与金牛大道茶店子路交叉路口,104.027558,30.698402,"1,2",114
3014-251048,中环路一品天下大街段与金牛大道茶店子路交叉路口,104.027548,30.698408,"3,4,5",114
3014-251052,白桦林路与珙桐街交叉路口,104.15126,30.581793,"1,2",-1
3014-251053,白桦林路与珙桐街交叉路口,104.137929,30.591878,"3,4,5",217
3014-251054,百草路与天朗路交叉路口,103.965135,30.745835,"1,2,3",-1
3014-251055,百草路与天朗路交叉路口,103.965013,30.746418,"1,2",-1
3014-251056,天虹路与百草路交叉路口,103.95551,30.75141,"1,2",-1
3014-251057,天虹路与百草路交叉路口,103.954664,30.750226,"1,2",-1
3014-251061,双柏路与天勤路交叉路口,103.911152,30.794692,"1,2,3",-1
3014-251063,双柏路与天勤路交叉路口,103.909773,30.795299,"1,2,3",-1
3014-251064,双柏路与天勤路交叉路口,103.910054,30.794217,"1,2,3",-1
3014-251072,武青南路(武侯大道顺江段路口至武科东一路路口）,103.982357,30.627108,"4,5",211
3014-251073,武侯大道顺江段与武青南路交叉路口,103.982196,30.626512,"1,2,3,4",211
3014-251074,武侯大道顺江段与武青南路交叉路口,103.982201,30.626447,5,211
3014-251075,武侯大道顺江段(武青南路路口至武兴四路路口),103.981304,30.625234,5,211
3014-251077,武侯大道顺江段与武青南路交叉路口,103.981737,30.625134,"1,2,3,4",211
3014-251081,武侯大道铁佛段与武青南路右转人行道口,103.983226,30.625021,"1,2,3",211
3014-251082,武侯大道铁佛段与万兴路交叉路口,103.982536,30.62088,"3,4,5",-1
3014-251084,交大路与星河路交叉路口,104.039229,30.708109,"1,2,3",189
3014-251085,交大路与星河路交叉路口,104.039225,30.7081,"4,5",189
3014-251146,滨江西路(人民南路二段路口至下南大街路口),104.062764,30.649933,"1,2,3",157
3014-251150,人民南路二段与新光华街交叉路口,104.063684,30.654454,"1,2,3",158
3014-251151,人民南路二段与新光华街交叉路口,104.063678,30.654478,"4,5",158
3014-251152,人民南路二段(红照壁街路口至滨江西路路口),104.063512,30.654297,"1,2,3",158
3014-251153,人民南路二段(红照壁街路口至滨江西路路口),104.063427,30.654286,"1,2",158
3014-251160,益新大道（益园二路路口至府城大道）,104.031216,30.591388,"1,2,3",-1
3014-251167,锦里东路与浆洗街交叉路口,104.05773,30.650458,"3,4,5",165
3014-251168,锦里东路与浆洗街交叉路口,104.057747,30.650615,"1,2,3",165
3014-251169,金盾路(上南大街路口至忠孝巷路口),104.060578,30.655413,"1,2,3",168
3014-251171,武侯大道双楠段与永盛北街交叉路口,104.01942,30.643697,"1,2,3",36
3014-251173,武侯大道双楠段与永盛北街交叉路口,104.019059,30.643135,"1,2,3",36
3014-251174,武侯大道双楠段与永盛北街交叉路口,104.019131,30.64314,1,36
3014-251175,武侯大道双楠段与红牌楼路交叉路口,104.017688,30.642052,"1,2,3",36
3014-251176,武侯大道双楠段（云霞路口至双丰东路路口）,104.017516,30.642274,"1,2,3",36
3014-251177,武侯大道双楠段与武晋路交叉路口,104.004642,30.636207,"1,2,3,4",27
3014-251178,武侯大道双楠段(太平园东路路口至太平园巷路口),104.00491,30.635796,"1,2,3",27
3014-251179,武侯大道顺江段与祥云路交叉路口,104.002946,30.634947,"1,2",27
3014-251185,新华大道江汉路与北较场西路交叉路口,104.058695,30.67827,"1,2,3",97
3014-251186,新华大道江汉路与北较场西路交叉路口,104.058753,30.678295,"4,5",97
3014-251206,解放路二段与一环路北三段交叉路口,104.080253,30.684139,"1,2,3",103
3014-251228,建功路与建设北路三段交叉路口,104.114035,30.679525,"1,2",-1
3014-251242,二仙桥北路与民兴路交叉路口,104.136477,30.694948,"1,2,3,4",-1
3014-251256,高新大道创业路（九兴大道路口至西门子路路口）,104.038515,30.619739,"1,2,3",12
3014-251257,高新大道创业路（九兴大道路口至西门子路路口）,104.038433,30.619547,"4,5,6",12
3014-251258,成双大道北段与华锦路交叉路口,104.003082,30.611104,"1,2,3",212
3014-251259,成双大道北段与华锦路交叉路口,104.003052,30.611109,5,212
3014-251260,成双大道北段与华烨路交叉路口,104.002702,30.610346,"1,2,3,4",212
3014-251261,成双大道北段与华烨路交叉路口,104.00267,30.610248,"1,2",212
3014-251269,金牛大道金泉路(金青路路口至金芙蓉大道路口),104.008104,30.723406,"1,2",208
3014-251270,金牛大道金泉路(金青路路口至金芙蓉大道路口),104.009514,30.721649,"1,2,3",208
3014-251271,金牛大道金泉路39号人行横道口,104.009545,30.721169,"1,2,3",208
3014-251272,金牛大道金泉路39号人行横道口,104.009526,30.721127,"4,5,6",208
3014-251273,金科北路与金牛大道金泉路段交叉口,104.00653,30.725613,"3,4,5",208
3014-251274,金科北路与金牛大道金泉路段交叉口,104.006271,30.725592,"1,2",208
3014-251275,交大路金牛公安局人行道路口,104.043584,30.702592,"1,2,3,4",132
3014-251361,益新大道（益园三路路口至益园二路路口）,104.028732,30.587701,"4,5",-1
3014-251362,益新大道（益园三路路口至益园二路路口）,104.028734,30.587736,"1,2,3",-1
3014-251364,交大路与银沙街交叉路口,104.041983,30.704219,"1,2,3,4",132
3014-251365,武侯大道铁佛段(成双大道中段路口至望锦横街路口),103.985653,30.602713,"1,2,3,4",-1
3014-251371,银河路（交大路路口至银河北街路口）,104.043457,30.701264,"1,2,3",132
3014-251372,交大路与长青路交叉路口,104.036498,30.711589,"1,2,3,4",189
3014-251373,交大路(长兰路路口至长庆路路口),104.03632,30.711374,"1,2,3,4",189
3014-251374,中环路一品天下大街段与茶店子路交叉口,104.02849,30.69855,"1,2,3,4",114
3014-251376,珙桐街与白桦林路交叉路口,104.152942,30.58111,"1,2,3,4",-1
3014-251379,蜀新大道与康强一路交叉路口,103.874663,30.755373,"1,2,3,4",-1
3014-251382,武侯大道铁佛段(武侯大道顺江段路口至来凤五路路口),103.982822,30.62441,"1,2,3,4",211
3014-251383,武侯大道铁佛段(万兴路路口至兆景路路口),103.982894,30.621084,"1,2,3,4",-1
3014-251433,新光华街与烟袋巷路交叉路口,104.065776,30.654836,"1,2,3",61
3014-251438,东城根下街与过街楼街交叉路口,104.057799,30.672002,"1,2,3,4",151
3014-251440,通祠路与染靛街交叉路口,104.053558,30.649938,"2,3,4",-1
3014-251443,新华大道文武路与金丝街交叉路口,104.068801,30.673545,"1,2,3,4",84
3014-251444,新华大道文武路与顺城大街交叉路口,104.06773,30.673811,"1,2,3,4",89
3014-251446,金仙桥路与新华大道通锦桥路交叉路口,104.052773,30.680867,"1,2,3,4",104
3014-251449,顺江路与宏济上路交叉路口,104.087497,30.642315,"1,2,3,4",31
3014-251458,高新大道创业路与紫荆西路交叉路口,104.040033,30.621358,"2,3,4,5",12
3014-251463,交大路(银沙街路口至银河路路口),104.041227,30.705191,"1,2",132
3014-251464,交大路(银沙街路口至银河路路口),104.04159,30.704775,3,132
3014-251465,驷马桥街与仁义路交叉路口,104.093218,30.70339,"1,2,3,4",202
3014-251466,横桥街与驷马桥街交叉路口,104.092838,30.703954,"1,2",202
3014-251467,仁义路与驷马桥街交叉路口,104.09378,30.703615,"1,2",202
3014-251478,太平园东路与武侯大道双楠段交叉路口,104.004742,30.635245,"1,2,3",27
3014-251479,顺兴路与武侯大道顺江段交叉路口,104.002999,30.635821,"1,2",27
3014-251497,新华大道江汉路（万和路路口至灯笼街路口）,104.059048,30.677989,"1,2,3",97
3014-251513,益州大道北段（府城大道西段路口至天益南巷路口）,104.057934,30.592041,"1,2,3",-1
3014-251530,北大街与东珠市街交叉路口,104.074627,30.675729,"1,2,3",-1
3014-251531,北大街(北东街路口至东珠市街路口),104.074633,30.675788,"4,5",-1
3014-251532,东大街城守东大街段(红星路三段路口至城守街路口),104.074926,30.655386,"1,2,3,4",138
3014-251533,锦兴路（烟袋巷路口至青石桥南街路口）,104.067176,30.654099,"1,2,3",59
3014-251534,锦兴路（烟袋巷路口至青石桥南街路口）,104.067052,30.6542,"4,5",59
3014-251535,青龙街与老东城根街交叉路口,104.059804,30.673241,"1,2,3,4",85
3014-251536,锦江大道与榕声路交叉路口,104.093981,30.589085,"1,2,3",-1
3014-251537,人民北路一段（成华西街路口至新村河边街路口）,104.069813,30.683462,"1,2,3",111
3014-251538,中环路青羊大道段(贝森路路口至清江中路路口),104.006662,30.671989,"3,4,5",86
3014-251539,中环路青羊大道段(贝森路路口至清江中路路口),104.00666,30.672056,"1,2",86
3014-251540,滨江西路（下南大街路口至人民南路二段路口）,104.059552,30.649795,"1,2,3",157
3014-251542,府城大道中段（交子北一路路口至金融城北路路口）,104.062019,30.591022,"4,5",-1
3014-251545,人民北路二段（北站西二巷路口至北站西三巷路口）,104.070762,30.692458,"1,2,3",126
3014-251546,大石西路（大石南路口至一环路西一段路口),104.035076,30.653418,"4,5",54
3014-251547,清江东路（大庆路口至牧电路口),104.030965,30.670696,"1,2",82
3014-251548,清江东路（大庆路口至牧电路口),104.030399,30.670784,"3,4,5",82
3014-251549,黄苑街(黄忠路路口至金博北路路口),104.00943,30.689851,"1,2,3",-1
3014-251550,金阳路(金凤路路口至中环路青羊大道段路口),104.006088,30.68053,"1,2,3",-1
3014-251551,金阳路(金凤路路口至蜀源路路口),104.005752,30.683162,"1,2,3",-1
3014-251552,蜀都大道总府路(红星路二段路口至福兴街路口),104.078072,30.659715,"1,2,3",71
3014-251553,瑞联路(四威南路路口至青森街路口),103.991232,30.670407,"1,2,3",-1
3014-251554,瑞联路(东坡北二路路口至春晓路路口),103.990157,30.670396,"1,2,3",-1
3014-251555,解放路一段（红花东路路口至田家巷路口）,104.084924,30.691409,"1,2,3",117
3014-251556,万和路(八宝街路口至王家塘街路口),104.057949,30.676138,"1,2,3,4",96
3014-251557,三环路航天立交下桥处(航天立交至锦绣大道),104.135858,30.615999,"1,2,3",16
3014-251558,万年路(跳蹬河北路路口至东篱路路口),104.12242,30.659981,"1,2,3",-1
3014-251559,中环路火车南站东路段(长寿南路路口至人民南路路口),104.068977,30.611124,"1,2,3",9
3014-251560,民兴北一路（民兴路路口至向龙一路路口）,104.155548,30.684974,"1,2",-1
3014-251561,民兴北二路（民兴路路口至向龙一路路口）,104.156918,30.684987,"1,2",128
3014-251562,民兴北一路（民兴路路口至向龙一路路口）,104.155548,30.685378,"1,2",-1
3014-251564,智远大道与金履三路交叉路口,103.980589,30.609255,"1,2,3",-1
3014-251565,成双大道中段与智远大道交叉路口,103.978908,30.604226,"1,2,3",-1
3014-251566,成双大道中段与智远大道交叉路口,103.978905,30.60411,"4,5,6",-1
3014-251567,智远大道与金履二路交叉路口,103.980642,30.606909,"1,2,3",-1
3014-251568,杉板桥南五路与崔家店横三街交叉口,104.125011,30.668219,"1,2",74
3014-251569,杉板桥南五路与崔家店横三街交叉口,104.125378,30.667936,"1,2",74
3014-251570,崔家店横二街与杉板桥南五路交叉路口,104.125998,30.66676,"1,2",-1
3014-251571,崔家店横二街与杉板桥南五路交叉路口,104.125967,30.66653,"1,2",-1
3014-251572,杉板桥南五路与崔家店路交叉路口,104.128595,30.662722,"1,2",-1
3014-251573,杉板桥南四路与崔家店横一街交叉路口,104.124741,30.663021,"1,2",-1
3014-251574,杉板桥南四路与崔家店横一街交叉路口,104.124524,30.663169,"1,2",-1
3014-251575,崔家店横二街与杉板桥南四路交叉路口,104.123049,30.665114,"1,2",-1
3014-251576,崔家店横二街与杉板桥南四路交叉路口,104.122877,30.664845,"1,2",-1
3014-251577,杉板桥南四路与崔家店横三街交叉路口,104.11947,30.66699,"1,2",74
3014-251578,杉板桥南四路与成华大道杉板桥路交叉路口,104.119224,30.667141,"1,2",74
3014-251579,杉板桥南四路与崔家店横一街交叉路口,104.124754,30.663645,1,-1
3014-251580,崔家店横一街与杉板桥南五路交叉路口,104.126894,30.664607,1,-1
3014-251581,益新大道与益园三路交叉路口,104.027624,30.586814,"1,2,3",-1
3014-251582,益新大道与益园三路交叉路口,104.027728,30.586874,"4,5",-1
3014-251583,益新大道与益园三路交叉路口,104.028411,30.587827,"1,2,3",-1
3014-251584,益新大道与益园三路交叉路口,104.0284,30.587872,"4,5",-1
3014-251585,益园三路（益新大道路口至益园路路口）,104.027615,30.587611,"1,2,3",-1
3014-251587,仙韵二路与民兴四路交叉路口,104.124852,30.687854,"1,2,3,4",-1
3014-251588,仙韵二路与民兴四路交叉路口,104.124335,30.688336,"1,2,3,4",-1
3014-251590,仙韵二路与民兴三路交叉路口,104.121386,30.690274,"1,2,3,4",-1
3014-251591,仙韵二路与民兴三路交叉口,104.121209,30.690336,"1,2,3,4",-1
3014-251592,民兴三路与仙韵二路交叉路口,104.121392,30.689752,"1,2",-1
3014-251593,仙韵二路与民兴二路交叉口,104.120773,30.690761,"1,2,3,4",-1
3014-251594,仙韵二路与民兴二路交叉路口,104.12047,30.690915,"1,2,3,4",-1
3014-251595,民兴二路与仙韵二路交叉路口,104.120578,30.690729,"1,2,3",-1
3014-251597,仙韵二路与民兴一路交叉路口,104.116164,30.694569,1.2.3,-1
3014-251598,仙韵二路与民兴一路交叉路口,104.118584,30.691381,"1,2,3,4",-1
3014-251599,仙韵二路与二仙桥公园交叉口,104.118005,30.69341,"1,2,3,4",-1
3014-251600,仙韵二路与二仙桥公园交叉口,104.117713,30.693584,"1,2,3,4",-1
3014-251601,仙韵二路与民兴路交叉口,104.116624,30.694443,"1,2,3",-1
3014-251602,致力路（民和巷路口至民兴路路口）,104.115977,30.694098,"1,2",-1
3014-251603,民兴路与致力路交叉路口,104.115936,30.694068,"1,2,3,4",-1
3014-251604,民兴路与仙韵一路交叉口,104.11468,30.692732,"1,2,3,4",119
3014-251605,民兴路与仙韵一路交叉路口,104.114431,30.692466,"1,2,3,4",119
3014-251606,民兴路与中环路八里庄路段交叉路口,104.115032,30.690375,"1,2,3,4",119
3014-251607,民兴二路与仙韵一路交叉路口,104.119175,30.689054,"1,2,3",119
3014-251608,民兴二路与仙韵一路交叉路口,104.119005,30.688823,"1,2,3",119
3014-251610,仙韵一路与民兴三路交叉路口,104.120821,30.687646,"1,2",119
3014-251611,民兴三路与仙韵一路交叉路口,104.120583,30.687298,"1,2",119
3014-251612,仙韵一路与民兴四路交叉路口,104.123231,30.686551,"1,2",119
3014-251613,仙韵一路与民兴四路交叉路口,104.123644,30.686279,"1,2",119
3014-251614,仙韵一路与民兴四路交叉路口,104.122878,30.686497,"1,2,3",119
3014-251705,白桦林路与银木街交叉路口,104.141958,30.587669,"1,2,3,4",-1
3014-251706,白桦林路与桦树街交叉路口,104.140758,30.588544,"1,2,3,4",-1
3014-251707,白桦林路与喜树街交叉路口,104.138332,30.589965,"1,2,3,4",-1
3014-251708,白桦林路与椰树街交叉路口,104.147399,30.584329,"2,3,4",-1
3014-251709,白桦林路与椰树街交叉路口,104.148225,30.583944,"1,2,3,4",-1
3014-251710,成双大道中段与金航路交叉路口,103.966168,30.606523,"1,2,3",-1
3014-251711,成双大道中段与金航路交叉路口,103.965988,30.606523,4,-1
3014-251712,成双大道中段与鞋都南四路交叉路口,103.971222,30.606632,"1,2,3,4",-1
3014-251713,武侯大道文昌段与成双大道中段交叉路口,103.985221,30.601125,"2,3,4",-1
3014-251714,武侯大道文昌段与簇马路一段交叉路口,103.985297,30.599783,"2,3,4,5",-1
3014-251715,智远大道与金履二路交叉路口,103.980651,30.607913,"1,2,3",-1
3014-251716,智远大道与金履一路交叉路口,103.979904,30.605948,"1,2,3,4",-1
3014-251717,智远大道与金履一路交叉路口,103.979629,30.605053,"1,2,3,4",-1
3014-251718,成双大道中段与智星二路交叉路口,103.975859,30.604875,"1,2,3",-1
3014-251719,成双大道中段与智星二路交叉路口,103.975756,30.604895,1,-1
3014-251720,交大路与长青路交叉路口,104.037014,30.712351,"1,2,3",189
3014-251721,长兰路（交大路路口至长庆西路路口）,104.035843,30.711719,"1,2",189
3014-251722,交大路与金府路交叉路口,104.03387,30.714439,"3,4,5",187
3014-251723,智远大道与七里大道交叉路口,103.979248,30.612492,"2,3,4,5",-1
3014-251724,智远大道与七里大道交叉路口,103.979367,30.61245,6,-1
3014-251725,智远大道(七里大道路口至来凤一路路口),103.979691,30.612708,"1,2,3,4",-1
3014-251726,智远大道(七里大道路口至来凤一路路口),103.979691,30.612735,5,-1
3014-251727,智远大道与七里路交叉路口,103.979857,30.612044,"1,2,3",-1
3014-251728,智远大道与七里路交叉路口,103.979724,30.612019,"4,5",-1
3014-251729,智远大道与七里大道交叉路口,103.980008,30.612631,"1,2,3",-1
3014-251730,中环路一品天下大街段与花照壁下横街交叉路口,104.031089,30.700064,"1,2,3,4",130
3014-251731,中环路一品天下大街段与花照壁下横街交叉路口,104.031336,30.70022,1,130
3014-251733,花照壁下横街与中环路一品天下大街段交叉路口,104.031662,30.700237,"1,2",130
3014-260001,人民南路四段与中环路火车南站东路段交叉路口,104.064705,30.612078,"1,2",18
3014-260002,人民南路四段与中环路火车南站东路段交叉路口,104.064681,30.612038,"3,4,5",18
3014-260003,人民南路四段与中环路火车南站东路段交叉路口,104.06386,30.610915,"1,2,3",7
3014-260004,人民南路四段与中环路火车南站东路段交叉路口,104.0639,30.610929,"4,5",7
3014-260005,中环路火车南站西路段(人民南路四段路口至桐叶路路口),104.064116,30.611137,"1,2,3",7
3014-260006,成都机场高速中环路火车南站西路段上行匝道,104.064119,30.611093,4,7
3014-260007,中环路火车南站西路段(人民南路四段路口至桐叶路路口),104.064086,30.611091,1,7
3014-260009,中环路火车南站西路段(桐叶路路口至桐梓林路路口),104.060915,30.611193,4,7
3014-260010,中环路火车南站西路段(桐南巷路口至人民南路四段路口),104.060443,30.610973,"1,2",7
3014-260011,中环路火车南站西路段(桐南巷路口至人民南路四段路口),104.060446,30.611013,"3,4,5,6",7
3014-260012,中环路火车南站西路段(益州大道北段路口至桐南巷路口),104.059152,30.610968,"1,2",7
3014-260013,中环路火车南站西路段(益州大道北段路口至桐南巷路口),104.059169,30.611012,"3,4,5,6",7
3014-260016,中环路火车南站西路段与桐梓林路交叉路口,104.057382,30.611066,"5,6,7,8",7
3014-260017,中环路火车南站西路段与桐梓林路交叉路口,104.05738,30.61104,"3,4",7
3014-260020,新光路(中环路火车南站西路段路口至桐梓林南路路口),104.055322,30.611863,"1,2,3",7
3014-260021,中环路火车南站西路段与新光路交叉路口,104.054377,30.611077,"3,4,5,6",7
3014-260022,中环路火车南站西路段与新光路交叉路口,104.054244,30.611099,"1,2",7
3014-260023,中环路火车南站西路段(新光路口至神仙树南路口),104.054459,30.611346,"1,2",7
3014-260024,中环路火车南站西路段(新光路路口至神仙树南路路口),104.054403,30.611389,"1,2,3",7
3014-260025,中环路火车南站西路段(新光路口至神仙树南路口),104.050689,30.610866,"1,2",180
3014-260026,中环路火车南站西路段(新光路口至神仙树南路口),104.050774,30.61085,"3,4",180
3014-260027,中环路火车南站西路段(景明路路口至新光路路口),104.04899,30.609344,"1,2,3,4",180
3014-260028,中环路紫瑞大道段(新光路口至神仙树南路口),104.050492,30.610955,"1,2,3",178
3014-260029,中环路紫瑞大道段与神仙树南路交叉路口,104.047429,30.611469,"5,6,7",178
3014-260030,中环路紫瑞大道段与神仙树南路交叉路口,104.047452,30.611467,"8,9,10",178
3014-260032,高朋西路(中环路科园大道段路口至科园四路口),104.029062,30.621118,"1,2,3",174
3014-260033,中环路武阳大道段与高朋西路交叉路口,104.028879,30.620983,"1,2,3",174
3014-260035,中环路武阳大道段与高朋西路交叉路口,104.028127,30.620544,"4,5,6",174
3014-260036,中环路武阳大道段与高朋西路交叉路口,104.028195,30.620531,"1,2,3",174
3014-260037,丽都路(中环路武阳大道段路口至长益东三路路口),104.026949,30.621706,"1,2,3",174
3014-260038,中环路武阳大道段与丽都路交叉路口,104.026682,30.621536,"1,2,3",174
3014-260039,中环路武阳大道段与丽都路交叉路口,104.025978,30.621087,"1,2,3",174
3014-260040,中环路武阳大道段与丽都路交叉路口,104.025988,30.621135,"4,5,6",174
3014-260041,中环路武阳大道段与董家湾南路交叉路口,104.023839,30.622479,"3,4,5",174
3014-260042,中环路武阳大道段与董家湾南路交叉路口,104.023745,30.622551,"1,2",174
3014-260043,董家湾南路(中环路武阳大道段路口至长益西三路口),104.023678,30.623202,"1,2,3",174
3014-260044,中环路武阳大道段(董家湾南路口至核桃堰路口),104.022688,30.623519,"3,4,5",174
3014-260046,中环路武阳大道段(董家湾南路口至核桃堰路口),104.022671,30.623547,"1,2",174
3014-260047,中环路武阳大道段与董家湾南路交叉路口,104.022655,30.623047,"1,2,3",174
3014-260048,中环路武阳大道段与董家湾南路交叉路口,104.022662,30.623063,"4,5,6",174
3014-260049,中环路武阳大道段(核桃堰路口至董家湾南路口),104.021281,30.624755,"1,2,3",174
3014-260050,中环路武阳大道段(核桃堰路口至董家湾南路口),104.021288,30.624754,"4,5",174
3014-260051,中环路武阳大道段与核桃堰路交叉路口,104.021097,30.62541,"1,2,3",174
3014-260052,中环路武阳大道段与核桃堰路交叉路口,104.021089,30.625408,"4,5,6",174
3014-260053,中环路武阳大道段与核桃堰路交叉路口,104.02026,30.625976,"4,5,6",174
3014-260054,中环路武阳大道段与核桃堰路交叉路口,104.020248,30.625991,"1,2,3",174
3014-260055,中环路武阳大道段与太平园东一街交叉路口,104.016611,30.630147,"1,2",35
3014-260056,中环路武阳大道段与太平园东一街交叉路口,104.016601,30.630132,"3,4,5",35
3014-260057,中环路武阳大道段与太平园东二街交叉路口,104.015962,30.631217,"4,5,6",35
3014-260058,中环路武阳大道段与太平园东二街交叉路口,104.015151,30.631717,"4,5,6",35
3014-260059,中环路武阳大道段与太平园东二街交叉路口,104.01518,30.631725,"1,2,3",35
3014-260060,中环路武阳大道段(永盛路口至永顺街路口),104.014886,30.632387,"1,2,3",35
3014-260061,中环路武阳大道段与鹭岛路交叉路口,104.006915,30.646869,"4,5,6",55
3014-260062,中环路武阳大道段与鹭岛路交叉路口,104.006934,30.646928,"1,2,3",55
3014-260063,中环路武阳大道段(太平园东三街路口至太平园东二街路口),104.014011,30.633012,"1,2,3",35
3014-260064,中环路武阳大道段与太平园东三街交叉路口,104.014002,30.633374,"4,5,6",35
3014-260065,中环路武阳大道段与鹭岛路交叉路口,104.006275,30.6472,"1,2,3",55
3014-260066,鹭岛路(中环路武阳大道段路口至龙华南路口),104.007696,30.64744,"1,2,3",55
3014-260067,吉福路(中环路武阳大道段路口至吉福北路路口),104.006271,30.647265,"1,2,3",55
3014-260068,中环路武阳大道段与鹭岛路交叉路口,104.007462,30.647574,"1,2,3",55
3014-260069,中环路武阳大道段与鹭岛路交叉路口,104.006558,30.647779,"1,2,3",55
3014-260070,中环路武阳大道段与鹭岛路交叉路口,104.006574,30.647776,"4,5,6",55
3014-260071,中环路青羊大道段7号人行横道路口,104.005647,30.660538,"4,5,6",86
3014-260072,中环路青羊大道段7号人行横道路口,104.005642,30.660529,"1,2,3",86
3014-260073,中环路青羊大道段7号人行横道路口,104.005967,30.659922,"4,5,6",86
3014-260074,中环路青羊大道段7号人行横道路口,104.00595,30.659916,"1,2,3",86
3014-260075,中环路青羊大道段(东坡路口至晋阳路口),104.005368,30.66291,"1,2,3",86
3014-260076,中环路青羊大道段(东坡路口至晋阳路口),104.005401,30.662859,"4,5",86
3014-260077,中环路青羊大道段与东坡路交叉路口,104.005715,30.66292,"1,2,3",86
3014-260078,中环路青羊大道段与东坡路交叉路口,104.005749,30.662971,"4,5,6",86
3014-260080,中环路青羊大道段与东坡路交叉路口,104.005307,30.664214,"4,5,6",86
3014-260081,中环路青羊大道段与东坡路交叉路口,104.005306,30.664209,"1,2,3",86
3014-260082,中环路青羊大道段(家园路口至光华村街路口),104.005664,30.664215,"4,5",86
3014-260083,中环路青羊大道段(家园路口至光华村街路口),104.005623,30.664224,"1,2,3",86
3014-260084,中环路青羊大道段(瑞联路口至东坡路口),104.005495,30.667102,"1,2,3",86
3014-260085,中环路青羊大道段(瑞联路口至东坡路口),104.005462,30.667162,"4,5",86
3014-260086,中环路青羊大道段与瑞联路交叉路口,104.005781,30.667236,"1,2,3",86
3014-260087,中环路青羊大道段与瑞联路交叉路口,104.005754,30.66711,"4,5,6",86
3014-260089,瑞联路(中环路青羊大道段路口至贝森南路口),104.004999,30.667842,"1,2,3,4",86
3014-260090,中环路青羊大道段与瑞联路交叉路口,104.005669,30.668223,"1,2,3",86
3014-260091,中环路青羊大道段与瑞联路交叉路口,104.005653,30.668212,"4,5,6",86
3014-260092,中环路青羊大道段(光华村街路口至贝森路口),104.006048,30.668654,"1,2,3",86
3014-260093,中环路青羊大道段(光华村街路口至贝森路口),104.006032,30.668653,"4,5",86
3014-260096,中环路青羊大道段与贝森路交叉路口,104.005737,30.671665,"1,2,3",86
3014-260098,中环路青羊大道段(金阳路口至清江中路口),104.008829,30.678524,"1,2,3",88
3014-260099,中环路青羊大道段(金阳路口至清江中路口),104.008833,30.678493,"4,5",88
3014-260100,中环路青羊大道段与锦西路交叉路口,104.009243,30.678533,"4,5,6",88
3014-260101,中环路青羊大道段与锦西路交叉路口,104.009293,30.678624,"1,2,3",88
3014-260102,中环路青羊大道段与锦西路交叉路口,104.008867,30.679205,"1,2,3",88
3014-260103,中环路青羊大道段与锦西路交叉路口,104.009965,30.678767,"1,2",88
3014-260104,中环路青羊大道段与锦西路交叉路口,104.009536,30.679355,"1,2,3",88
3014-260105,中环路青羊大道段与锦西路交叉路口,104.009621,30.679484,"4,5,6",88
3014-260106,中环路青羊大道段与金沙遗址路交叉路口,104.010878,30.680686,"4,5,6",88
3014-260107,中环路青羊大道段与金沙遗址路交叉路口,104.010896,30.680697,"1,2,3",88
3014-260108,中环路青羊大道段与金沙遗址路交叉路口,104.011328,30.681743,"4,5,6",88
3014-260109,中环路青羊大道段与金沙遗址路交叉路口,104.011311,30.681722,"1,2,3",88
3014-260110,中环路青羊大道段与同盛路交叉路口,104.012436,30.682612,"1,2,3",88
3014-260111,中环路青羊大道段与同盛路交叉路口,104.012503,30.682668,"4,5,6",88
3014-260112,同盛路(中环路青羊大道段路口至锦屏路口),104.013405,30.682808,"1,2,3",88
3014-260113,中环路青羊大道段与同盛路交叉路口,104.01294,30.683766,"4,5,6",88
3014-260114,中环路青羊大道段与同盛路交叉路口,104.01296,30.683864,"1,2,3",88
3014-260115,中环路青羊大道段与同济街交叉路口,104.014114,30.685072,"1,2,3",88
3014-260116,中环路青羊大道段与同济街交叉路口,104.014083,30.685011,"4,5,6",88
3014-260117,中环路同和路段与同济街交叉路口,104.014652,30.685101,1,88
3014-260118,中环路同和路段与同济街交叉路口,104.01425,30.685708,"4,5,6",88
3014-260119,中环路同和路段与同济街交叉路口,104.014213,30.68566,"1,2,3",88
3014-260120,中环路同和路段与黄苑街交叉路口,104.015356,30.686814,"1,2,3",88
3014-260121,中环路同和路段与黄苑街交叉路口,104.015366,30.686833,"4,5,6",88
3014-260122,中环路同和路段与黄苑东街交叉路口,104.015564,30.687521,"1,2,3",88
3014-260123,营康西路(中环路一品天下大街段路口至蜀兴西街路口),104.023335,30.694881,"1,2,3",114
3014-260124,中环路一品天下大街段与营康西路交叉路口,104.023412,30.695018,"1,2,3",114
3014-260125,营康西路(中环路一品天下大街段路口至安蓉西路口),104.022628,30.695834,"1,2",114
3014-260126,中环路一品天下大街段与营康西路交叉路口,104.023357,30.695863,"4,5,6",114
3014-260127,中环路一品天下大街段与营康西路交叉路口,104.023377,30.695866,"1,2,3",114
3014-260128,中环路一品天下大街段与安蓉路交叉路口,104.024893,30.696637,"1,2,3",114
3014-260129,中环路一品天下大街段与安蓉路交叉路口,104.024667,30.6972,1,114
3014-260142,中环路金府路段(茶店子路口至花照壁东街路口),104.024821,30.708964,"1,2",187
3014-260143,中环路金府路段(茶店子路口至花照壁东街路口),104.02478,30.708919,"3,4,5",187
3014-260144,中环路金府路段与花照壁中横街交叉路口,104.026843,30.710031,"1,2",187
3014-260145,中环路金府路段与花照壁中横街交叉路口,104.026732,30.709971,"3,4,5",187
3014-260146,中环路金府路段(花照壁东街路口至茶店子路路口),104.026623,30.710156,"1,2,3",187
3014-260147,中环路金府路段(花照壁东街路口至茶店子路路口),104.026613,30.710157,"4,5",187
3014-260148,中环路金府路段与花照壁中横街交叉路口,104.027463,30.709901,"1,2,3,4",187
3014-260159,中环路金府路段(长庆西一路路口至交大路路口),104.030487,30.711932,"1,2,3",187
3014-260161,中环路金府路段(交大路路口至长庆西一路路口),104.033561,30.713847,"1,2,3",187
3014-260170,G4202(成都绕城高速)7km+120m,104.165706,30.757217,"4,5",-1
3014-260171,中环路金府路段(长青横街路口至交大路路口),104.036585,30.715601,"4,5",190
3014-260172,中环路金府路段(长青横街路口至交大路路口),104.036641,30.715657,"1,2,3",190
3014-260173,中环路金府路段与长青横街交叉路口,104.037564,30.715938,"4,5,6",190
3014-260174,中环路金府路段与长青横街交叉路口,104.037659,30.715998,"1,2,3",190
3014-260175,中环路金府路段与长青横街交叉路口,104.037824,30.715817,1,190
3014-260176,中环路金府路段与长青横街交叉路口,104.0379,30.716394,"1,2,3",190
3014-260177,中环路金府路段与长青横街交叉路口,104.037927,30.716383,"4,5,6",190
3014-260178,中环路金府路段(星汉北路口至长青横街路口),104.039787,30.717513,"1,2,3",190
3014-260179,中环路金府路段(星汉北路口至长青横街路口),104.039733,30.71757,"4,5",190
3014-260180,中环路金府路段704号人行横道路口,104.040112,30.717538,"1,2,3",190
3014-260181,中环路金府路段704号人行横道路口,104.040055,30.717498,"4,5",190
3014-260190,中环路金府路段与金府巷交叉路口,104.04613,30.724161,"1,2,3",190
3014-260191,中环路金府路段(政通路口至金府巷路口),104.046098,30.724132,"4,5,6",190
3014-260192,中环路金府路段与金府巷交叉路口,104.046199,30.724436,"3,4,5",190
3014-260193,中环路金府路段与金府巷交叉路口,104.046158,30.724404,"1,2",190
3014-260194,中环路金府路段(政通路口至金府巷路口),104.046245,30.724492,"1,2,3",190
3014-260195,中环路金府路段(政通路口至金府巷路口),104.046178,30.724397,"4,5",190
3014-260196,中环路金府路段与政通路交叉路口,104.046568,30.724415,"4,5,6",190
3014-260197,中环路金府路段与政通路交叉路口,104.046628,30.724439,"1,2,3",190
3014-260206,中环路洞子口路段(泉水西路口至政通路口),104.050959,30.72571,"1,2,3",193
3014-260207,中环路洞子口路段(泉水西路口至政通路口),104.051055,30.725667,"4,5",193
3014-260208,中环路洞子口路段与福泉路交叉路口,104.051194,30.7255,"4,5,6",193
3014-260209,中环路洞子口路段与福泉路交叉路口,104.051126,30.725494,"1,2,3",193
3014-260211,中环路洞子口路段与福泉路交叉路口,104.051963,30.725677,"4,5,6",193
3014-260212,中环路洞子口路段与福泉路交叉路口,104.052066,30.72567,"1,2,3",193
3014-260214,中环路洞子口路段(福泉路路口至旺泉街路口),104.052228,30.725466,"1,2",193
3014-260215,中环路洞子口路段(蓉北商贸大道三段路口至泉水西路路口),104.05503,30.725156,"4,5",193
3014-260216,中环路洞子口路段(蓉北商贸大道三段路口至泉水西路路口),104.055007,30.725148,"1,2,3",193
3014-260217,中环路洞子口路段与蓉北商贸大道三段交叉路口,104.055148,30.72489,"1,2,3",193
3014-260218,中环路洞子口路段与蓉北商贸大道三段交叉路口,104.055094,30.724905,"4,5,6",193
3014-260219,中环路洞子口路段与蓉北商贸大道三段交叉路口,104.055589,30.725633,"1,2,3",193
3014-260220,中环路洞子口路段与蓉北商贸大道三段交叉路口,104.055579,30.725485,"4,5",193
3014-260221,蓉北商贸大道二段(中环路洞子口路段至福泉东路路口),104.055882,30.724133,"1,2,3",193
3014-260222,蓉北商贸大道三段(中环路洞子口路段路口至北三环路二段内侧辅道路口),104.055941,30.725474,"1,2",193
3014-260223,蓉北商贸大道三段(中环路洞子口路段路口至北三环路二段内侧辅道路口),104.055955,30.725641,"3,4,5",193
3014-260224,中环路洞子口路段与蓉北商贸大道三段交叉路口,104.056103,30.724208,"1,2,3",193
3014-260229,中环路洞子口路段与泉水东路交叉路口,104.059064,30.724039,"1,2",193
3014-260231,中环路洞子口路段(福泉东路口至王贾路口),104.059193,30.723268,"1,2,3",193
3014-260233,中环路洞子口路段(王贾路口至福泉东路口),104.065266,30.720447,"1,2,3",193
3014-260235,中环路洞子口路段与王贾路交叉路口,104.065904,30.720761,"1,2,3",193
3014-260236,王贾路(中环路洞子口路段路口至王贾东二街路口),104.066089,30.720879,"1,2,3",193
3014-260239,中环路洞子口路段与王贾路交叉路口,104.066441,30.71996,"1,2.3",193
3014-260240,中环路洞子口路段与王贾路交叉路口,104.06646,30.719955,"4,5,6",193
3014-260245,中环路洞子口路段(凤凰北路口至八里桥路口),104.06856,30.718669,"1,2,3",193
3014-260246,中环路洞子口路段(凤凰北路口至八里桥路口),104.068559,30.718663,"4,5",193
3014-260247,中环路洞子口路段(八里桥路口至王贾路口),104.070962,30.717457,"1,2,3",193
3014-260248,中环路洞子口路段(八里桥路口至王贾路口),104.070969,30.71746,"4,5",193
3014-260249,中环路洞子口路段与八里桥路交叉路口,104.07175,30.716677,"3,4,5",196
3014-260250,中环路洞子口路段与八里桥路交叉路口,104.071632,30.716776,"1,2",196
3014-260251,中环路洞子口路段与八里桥路交叉路口,104.071479,30.717677,"1,2,3",195
3014-260252,八里桥路(中环路洞子口路段路口至韦家碾三路口),104.071572,30.717733,"1,2,3",195
3014-260253,八里桥路(中环路洞子口路段路口至凤凰东路路口),104.072039,30.716054,"1,2,3",197
3014-260254,中环路洞子口路段与八里桥路交叉路口,104.0722,30.716069,"1,2,3",197
3014-260259,中环路双荆路段与双瑞一路交叉路口,104.073986,30.715024,1,196
3014-260264,中环路双荆路段(双水碾街路口至双兴街路口),104.083123,30.713177,"4,5",201
3014-260265,中环路双荆路段(双水碾街路口至双兴街路口),104.083229,30.713198,"1,2,3",201
3014-260266,中环路双荆路段与双水碾街交叉路口,104.083075,30.713053,"1,2,3",201
3014-260267,中环路双荆路段与双水碾街交叉路口,104.082969,30.713037,"4,5",201
3014-260268,中环路双荆路段与双水碾街交叉路口,104.083562,30.713216,"3,4,5",201
3014-260269,中环路双荆路段与双水碾街交叉路口,104.083615,30.71324,"1,2",201
3014-260270,中环路双荆路段(双水碾街路口至沙荆路口),104.083611,30.713031,"1,2",201
3014-260271,中环路双荆路段(双水碾街路口至沙荆路口),104.083699,30.713022,"3,4,5",201
3014-260272,中环路双荆路段(青冈南路口至双水碾街路口),104.086257,30.71306,"3,4,5",201
3014-260273,中环路双荆路段(青冈南路口至双水碾街路口),104.086283,30.71299,"1,2",201
3014-260274,中环路双荆路段与沙荆路交叉路口,104.086426,30.712819,"4,5",201
3014-260275,中环路双荆路段与沙荆路交叉路口,104.08634,30.71279,"1,2,3",201
3014-260276,中环路双荆路段与沙荆路交叉路口,104.087519,30.71291,"1,2,3",201
3014-260277,中环路双荆路段与沙荆路交叉路口,104.087178,30.712899,"4,5,6",201
3014-260278,中环路双荆路段与青冈南路交叉路口,104.089208,30.712465,"1,2",201
3014-260279,中环路双荆路段与青冈南路交叉路口,104.08916,30.712468,"3,4,5",201
3014-260280,中环路双荆路段与青冈南路交叉路口,104.089825,30.712578,"1,2",201
3014-260281,中环路双荆路段与青冈南路交叉路口,104.089734,30.712589,"3,4,5",201
3014-260282,中环路双荆路段与荆竹坝路交叉路口,104.090778,30.712339,"3,4,5",201
3014-260283,中环路双荆路段与荆竹坝路交叉路口,104.090798,30.71233,"1,2",201
3014-260284,中环路双荆路段与荆竹坝路交叉路口,104.091739,30.712341,"1,2",201
3014-260285,中环路双荆路段与荆竹坝路交叉路口,104.09162,30.712351,"3,4,5",201
3014-260286,中环路双荆路段与洪山北路交叉路口,104.093605,30.711256,"1,2,3",201
3014-260287,中环路双荆路段与洪山北路交叉路口,104.093626,30.711268,"4,5,6",201
3014-260288,中环路双荆路段与洪山北路交叉路口,104.094231,30.711235,"1,2,3",201
3014-260289,中环路双荆路段与洪山北路交叉路口,104.094366,30.711099,"4,5,6",201
3014-260290,中环路双荆路段与驷马桥街交叉路口,104.096278,30.709969,"1,2,3",201
3014-260291,中环路双荆路段与驷马桥街交叉路口,104.096438,30.709874,"4,5,6",201
3014-260292,中环路双荆路段与驷马桥街交叉路口,104.097512,30.710503,"1,2,3",203
3014-260293,中环路双荆路段与驷马桥街交叉路口,104.09693,30.709111,"1,2,3",202
3014-260294,昭觉寺南路(中环路昭觉寺横路段路口至荆竹中路路口),104.097597,30.710198,"1,2,3",203
3014-260295,中环路双荆路段与驷马桥街交叉路口,104.097984,30.709303,"1,2,3",204
3014-260296,中环路双荆路段与驷马桥街交叉路口,104.097904,30.70943,"4,5,6",204
3014-260297,中环路昭觉寺横路段6号人行横道路口,104.098785,30.707418,"1,2",204
3014-260298,中环路昭觉寺横路段6号人行横道路口,104.098884,30.70739,"3,4,5",204
3014-260299,中环路昭觉寺横路段(昭晖路口至昭觉寺南路口),104.099371,30.706831,"1,2",204
3014-260300,中环路昭觉寺横路段(昭晖路路口至昭觉寺南路路口),104.099337,30.706847,"3,4,5",204
3014-260301,中环路昭觉寺横路段与昭晖路交叉路口,104.099206,30.706685,"4,5,6",204
3014-260302,中环路昭觉寺横路段与昭晖路交叉路口,104.099263,30.706599,"1,2,3",204
3014-260303,中环路昭觉寺横路段与昭晖路交叉路口,104.100364,30.706264,"1,2,3",206
3014-260304,昭晖路(中环路昭觉寺横路段路口至昭青横路口),104.10065,30.706202,"1,2,3",206
3014-260305,中环路昭觉寺横路段与昭晖路交叉路口,104.100289,30.705288,"3,4,5",205
3014-260306,中环路昭觉寺横路段与昭晖路交叉路口,104.100195,30.70539,"1,2",205
3014-260307,中环路昭觉寺横路段与仁义路交叉路口,104.100397,30.704582,"1,2,3",205
3014-260308,中环路昭觉寺横路段与仁义路交叉路口,104.100428,30.704477,"4,5,6",205
3014-260309,中环路八里庄路段(八里庄路69号人行横道路口至青龙场高架桥外侧上桥口),104.109204,30.694243,"1,2,3",119
3014-260310,中环路八里庄路段(八里庄路69号人行横道路口至青龙场高架桥外侧上桥口),104.109407,30.694062,"4,5,6",119
3014-260311,中环路八里庄路段73号人行横道路口,104.112037,30.69188,"3,4,5",119
3014-260312,中环路八里庄路段73号人行横道路口,104.112026,30.691886,"1,2",119
3014-260313,中环路八里庄路段73号人行横道路口,104.112639,30.691766,"3,4,5",119
3014-260314,中环路八里庄路段73号人行横道路口,104.112584,30.691813,"1,2",119
3014-260315,中环路八里庄路段50号人行横道路口,104.112542,30.691501,"3,4,5",119
3014-260316,中环路八里庄路段50号人行横道路口,104.112521,30.691512,"1,2",119
3014-260317,中环路八里庄路段50号人行横道路口,104.111401,30.692704,"1,2,3",119
3014-260318,中环路八里庄路段50号人行横道路口,104.11136,30.692711,"4,5",119
3014-260319,中环路八里庄路段与二仙桥西一巷交叉路口,104.115558,30.689366,"3,4,5",119
3014-260320,中环路八里庄路段与二仙桥西一巷交叉路口,104.115639,30.689335,"1,2",119
3014-260321,中环路八里庄路段与二仙桥西北路交叉路口,104.116499,30.688916,"3,4,5",119
3014-260322,中环路八里庄路段与二仙桥西北路交叉路口,104.116472,30.688888,"1,2",119
3014-260323,中环路二仙桥东路段与民兴二路交叉路口,104.117568,30.687843,"1,2,3",119
3014-260324,中环路二仙桥西路段与民兴二路交叉路口,104.11754,30.687857,"4,5,6",119
3014-260325,中环路二仙桥西路段与民兴二路交叉路口,104.118126,30.687702,"3,4,5",119
3014-260326,中环路二仙桥西路段与民兴二路交叉路口,104.118121,30.687694,"1,2",119
3014-260327,中环路二仙桥西路段(民兴二路口至地勘路口),104.118709,30.686964,"1,2,3",119
3014-260328,中环路二仙桥西路段(民兴二路口至地勘路口),104.118748,30.686962,"4,5",119
3014-260329,中环路二仙桥西路段与地勘路交叉路口,104.121139,30.685161,"1,2,3",119
3014-260330,中环路二仙桥西路段与地勘路交叉路口,104.121061,30.685206,"4,5",119
3014-260331,中环路二仙桥东路段(枫丹路路口至二仙桥北路路口),104.129359,30.679159,"4,5",119
3014-260332,中环路二仙桥东路段(枫丹路路口至二仙桥北路路口),104.129419,30.679105,"1,2,3",119
3014-260333,中环路二仙桥东路段与枫丹路交叉路口,104.129366,30.678871,"1,2,3",119
3014-260334,中环路二仙桥东路段与枫丹路交叉路口,104.129322,30.678924,"4,5",119
3014-260335,中环路崔家店路段(崔家店路路口至和正路路口),104.13399,30.667631,"1,2,3",90
3014-260336,中环路崔家店路段(崔家店路路口至和正路路口),104.133864,30.667324,"4,5",90
3014-260337,中环路崔家店路段459号人行横道路口,104.133619,30.667365,"1,2",90
3014-260338,中环路崔家店路段459号人行横道路口,104.133699,30.667469,"3,4,5",90
3014-260339,中环路崔家店路段459号人行横道路口,104.133531,30.666655,"3,4,5",90
3014-260340,中环路崔家店路段459号人行横道路口,104.133583,30.666745,"1,2",90
3014-260341,中环路崔家店路段391号人行横道路口,104.132485,30.665839,"1,2",90
3014-260342,中环路崔家店路段391号人行横道路口,104.132435,30.66579,"3,4,5",90
3014-260343,中环路双店路段与崔家店路交叉路口,104.131573,30.664849,"1,2,3",90
3014-260344,中环路双店路段与崔家店路交叉路口,104.131562,30.66483,"4,5,6",90
3014-260345,中环路双店路段与崔家店路交叉路口,104.13195,30.663909,"1,2,3",90
3014-260346,中环路双店路段与崔家店路交叉路口,104.13193,30.663949,"4,5,6",90
3014-260347,中环路双店路段(崔家店路路口至大头河桥7人行横道路口),104.131818,30.663719,"1,2,3",90
3014-260348,中环路双店路段(崔家店路路口至大头河桥7人行横道路口),104.13169,30.663778,"4,5",90
3014-260349,中环路双店路段大头河桥7人行横道路口,104.134765,30.659062,"1,2,3",90
3014-260350,中环路双店路段大头河桥7人行横道路口,104.1348,30.659008,"4,5,6",90
3014-260351,中环路双店路段大头河桥7人行横道路口,104.135138,30.65869,"4,5,6",90
3014-260352,中环路双店路段大头河桥7人行横道路口,104.135127,30.65873,"1,2,3",90
3014-260353,中环路建材路段(御风一路口至迎晖路口),104.136923,30.645334,"1,2,3",47
3014-260354,中环路建材路段(御风一路口至迎晖路口),104.136919,30.645267,"4,5",47
3014-260355,中环路建材路段11号人行横道路口,104.136988,30.643539,"1,2,3",47
3014-260356,中环路建材路段11号人行横道路口,104.136993,30.643482,"4,5",47
3014-260357,中环路建材路段11号人行横道路口,104.13724,30.643141,"3,4",47
3014-260358,中环路建材路段11号人行横道路口,104.137226,30.643111,"1,2",47
3014-260359,中环路建材路段(御风一路口至迎晖路口),104.136918,30.644957,"1,2",47
3014-260360,中环路建材路段(御风一路口至迎晖路口),104.13692,30.644853,"3,4",47
3014-260361,中环路建材路段(迎晖路路口至五桂路路口),104.137325,30.640428,"1,2,3",47
3014-260362,中环路建材路段(迎晖路路口至五桂路路口),104.137283,30.640837,"4,5",47
3014-260363,中环路锦绣大道段与迎晖路交叉路口,104.137971,30.639245,"1,2,3,4",37
3014-260365,白龙江路(中环路锦绣大道段路口至峨眉山路口),104.136402,30.63587,"1,2,3",17
3014-260366,白龙江路(中环路锦绣大道段路口至丹景山路口),104.136404,30.635568,"1,2",17
3014-260367,白龙江路(中环路锦绣大道段路口至丹景山路口),104.136318,30.635599,"1,2.3",17
3014-260368,中环路锦绣大道段与白龙江路交叉路口,104.13513,30.636149,"1,2,3",17
3014-260369,中环路锦绣大道段与雅砻江路交叉路口,104.134793,30.634177,"4,5,6",17
3014-260370,中环路锦绣大道段与雅砻江路交叉路口,104.134876,30.634292,"1,2,3",17
3014-260371,雅砻江路(中环路锦绣大道段路口至峨眉山路路口),104.13424,30.63405,"1,2,3",17
3014-260372,中环路锦绣大道段与雅砻江路交叉路口,104.134104,30.63401,"1,2,3",17
3014-260373,中环路锦绣大道段与雅砻江路交叉路口,104.13451,30.632944,"1,2,3",17
3014-260374,中环路锦绣大道段与雅砻江路交叉路口,104.134494,30.632918,"4,5,6",17
3014-260375,中环路锦绣大道段与沱江路交叉路口,104.133843,30.632253,"4,5,6",17
3014-260376,中环路锦绣大道段与沱江路交叉路口,104.133868,30.632369,"1,2,3",17
3014-260377,沱江路(中环路锦绣大道段路口至峨眉山路口),104.133204,30.632068,"1,2,3",17
3014-260379,中环路锦绣大道段与沱江路交叉路口,104.133042,30.632019,"1,2,3",17
3014-260380,中环路锦绣大道段与青衣江路交叉路口,104.132761,30.629921,"3,4,5",17
3014-260381,中环路锦绣大道段与青衣江路交叉路口,104.132762,30.629956,"1,2",17
3014-260382,中环路锦绣大道段(青衣江路口至沱江路口),104.133045,30.629891,"1,2,3",17
3014-260383,中环路锦绣大道段(青衣江路口至沱江路口),104.133095,30.629963,"4,5,6",17
3014-260384,中环路锦绣大道段与青衣江路交叉路口,104.1335,30.629449,"1,2",17
3014-260385,中环路锦绣大道段与青衣江路交叉路口,104.132772,30.629371,"4,5",17
3014-260386,中环路锦绣大道段与青衣江路交叉路口,104.132749,30.629432,"1,2,3",17
3014-260387,中环路锦绣大道段与岷江路交叉路口,104.132282,30.628885,"1,2,3",17
3014-260388,中环路锦绣大道段与岷江路交叉路口,104.132319,30.629069,"4,5,6",17
3014-260389,中环路锦绣大道段与岷江路交叉路口,104.132889,30.628081,"1,2,3",17
3014-260390,中环路锦绣大道段与岷江路交叉路口,104.133032,30.628065,"4,5",17
3014-260391,岷江路(中环路锦绣大道段路口至峨眉山路口),104.131473,30.628614,"1,2,3",17
3014-260392,岷江路(中环路锦绣大道段路口至峨眉山路口),104.130905,30.628793,"4,5",17
3014-260393,中环路锦绣大道段与岷江路交叉路口,104.131338,30.628374,"1,2,3",17
3014-260394,中环路锦绣大道段与岷江路交叉路口,104.131351,30.628395,"4,5",17
3014-260395,岷江路(中环路锦绣大道段路口至青城山路口),104.132995,30.627698,"4,5",17
3014-260396,岷江路(中环路锦绣大道段路口至青城山路口),104.13296,30.627686,"1,2,3",17
3014-260397,中环路锦绣大道段与岷江路交叉路口,104.131867,30.627465,"1,2,3",17
3014-260398,中环路锦绣大道段与大渡河路交叉路口,104.131048,30.626544,"1,2",17
3014-260399,中环路锦绣大道段与大渡河路交叉路口,104.131076,30.626564,"3,4",17
3014-260400,中环路锦绣大道段与大渡河路交叉路口,104.130997,30.625703,"3,4,5",17
3014-260401,中环路锦绣大道段与大渡河路交叉路口,104.131013,30.625782,"1,2",17
3014-260402,中环路锦绣大道段与安宁河路交叉路口,104.130376,30.624797,"1,2,3",17
3014-260403,中环路锦绣大道段与安宁河路交叉路口,104.130372,30.624856,"4,5,6",17
3014-260404,安宁河路(中环路锦绣大道段路口至九寨沟路路口),104.12958,30.62467,"1,2,3",17
3014-260405,中环路锦绣大道段与安宁河路交叉路口,104.129749,30.624562,"1,2,3,4",17
3014-260406,安宁河路(中环路锦绣大道段路口至青城山路口),104.130894,30.624314,"1,2,3",17
3014-260407,中环路锦绣大道段与安宁河路交叉路口,104.130444,30.624261,"4,5,6",17
3014-260408,中环路锦绣大道段与安宁河路交叉路口,104.130428,30.624275,"1,2,3",17
3014-260409,中环路锦绣大道段(安宁河路口至渠江路口),104.129518,30.622591,"3,4",17
3014-260410,中环路锦绣大道段(安宁河路口至渠江路口),104.129501,30.622571,"1,2",17
3014-260411,静明路（中环路锦绣大道段路口至佳宏北路路口）,104.129669,30.620124,"1,2,3",16
3014-260412,中环路锦绣大道段与静明路交叉路口,104.127787,30.620121,"1,2",38
3014-260413,静明路(中环路锦绣大道段路口至劼人路路口),104.12804,30.620362,"1,2,3",38
3014-260414,静明路(中环路锦绣大道段路口至国槐街路口),104.127794,30.620453,"1,2,3",38
3014-260415,中环路锦绣大道段(菱窠路口至静明路口),104.128369,30.61801,"4,5,6",15
3014-260416,中环路锦绣大道段(菱窠路口至静明路口),104.128369,30.618015,"1,2,3",15
3014-260417,中环路锦绣大道段(静明路口至菱窠路口),104.127479,30.615045,"1,2",15
3014-260418,中环路锦绣大道段(静明路口至菱窠路口),104.127522,30.61519,"3,4,5",15
3014-260423,菱窠路(中环路锦绣大道段路口至劼人路口),104.125656,30.612723,"1,2,3",15
3014-260424,中环路锦绣大道段与菱窠路交叉路口,104.125519,30.612692,"1,2,3",15
3014-260425,中环路锦绣大道段与菱窠路交叉路口,104.126,30.611848,"1,2,3",15
3014-260426,中环路锦绣大道段与锦华路二段交叉路口,104.095002,30.607913,"1,2,3",6
3014-260427,中环路锦绣大道段(菱窠路口至川师东门路口),104.12573,30.611972,"1,2,3",15
3014-260428,中环路锦绣大道段(菱窠路口至川师东门路口),104.125587,30.611765,"4,5",15
3014-260429,中环路锦绣大道段(川师东门路口至菱窠路口),104.122739,30.609011,"1,2,3",15
3014-260430,中环路锦绣大道段(菱窠路口至川师东门路口),104.123147,30.609245,"4,5",15
3014-260431,中环路锦绣大道段川师东门路口,104.122449,30.609088,"1,2",15
3014-260432,中环路锦绣大道段川师东门路口,104.122505,30.609113,"3,4,5",15
3014-260433,中环路锦绣大道段川师东门路口,104.121184,30.608456,"1,2,3",15
3014-260434,中环路锦绣大道段川师东门路口,104.121177,30.60846,"4,5,6",15
3014-260435,中环路锦绣大道段(川师东门路口至静安路路口),104.121115,30.608693,"3,4,5",15
3014-260436,中环路锦绣大道段(川师东门路口至静安路路口),104.120774,30.608651,"1,2",15
3014-260437,中环路锦绣大道段(经天东路路口至静安路路口),104.106994,30.607112,"1,2,3",6
3014-260438,中环路锦绣大道段(经天东路路口至静安路路口),104.10692,30.607088,"4,5",6
3014-260439,中环路锦绣大道段与经天东路交叉路口,104.106751,30.607271,"1,2",6
3014-260440,中环路锦绣大道段与经天东路交叉路口,104.106758,30.607316,"3,4,5",6
3014-260441,中环路锦绣大道段与经天东路交叉路口,104.106304,30.607048,"1,2",6
3014-260442,中环路锦绣大道段与经天东路交叉路口,104.106344,30.607059,"3,4,5",6
3014-260443,中环路锦绣大道段(经天东路口至晨辉北路口),104.106147,30.607319,"1,2,3",6
3014-260444,中环路锦绣大道段(经天东路口至晨辉北路口),104.10631,30.607299,"4,5",6
3014-260445,中环路锦绣大道段(锦华路二段路口至经天东路口),104.096713,30.607728,"1,2,3",6
3014-260446,中环路锦绣大道段(锦华路二段路口至经天东路口),104.10607,30.607012,"4,5",6
3014-260447,中环路锦绣大道段与菱窠路交叉路口,104.126007,30.611909,"4,5,6",15
3014-260448,中环路锦绣大道段与锦华路二段交叉路口,104.094987,30.607931,"4,5,6",6
3014-260449,中环路锦绣大道段与琉璃路交叉路口,104.091385,30.608249,"1,2,3",6
3014-260450,中环路锦绣大道段与琉璃路交叉路口,104.091568,30.608178,"4,5,6",6
3014-260451,中环路高攀东路段(桂溪路口至琉璃路口),104.088508,30.608433,"1,2,3",6
3014-260452,中环路高攀东路段(桂溪路口至琉璃路口),104.087655,30.608519,"4,5",6
3014-260453,中环路高攀东路段(琉璃路口至高翔路口),104.087313,30.60882,"3,4",6
3014-260454,中环路高攀东路段(琉璃路口至高翔路口),104.087228,30.60882,"1,2",6
3014-260455,中环路高攀东路段6号人行横道路口,104.082558,30.609178,"1,2,3",6
3014-260456,中环路高攀东路段6号人行横道路口,104.082664,30.609201,"4,5",6
3014-260457,中环路高攀东路段6号人行横道路口,104.081929,30.609149,"4,5",6
3014-260458,中环路高攀东路段6号人行横道路口,104.081853,30.609191,"1,2,3",6
3014-260459,中环路高攀东路段与高翔路交叉路口,104.081169,30.609758,"1,2,3",6
3014-260460,中环路高攀东路段与高翔路交叉路口,104.081173,30.609746,"3,4,5",6
3014-260461,中环路高攀东路段(桂溪路口至琉璃路口),104.081261,30.609462,"1,2,3",6
3014-260462,中环路高攀东路段(桂溪路口至琉璃路口),104.081405,30.609401,"4,5",6
3014-260465,高攀路(中环路高攀东路段路口至高翔西路路口),104.078461,30.61153,"1,2,3",6
3014-260466,中环路高攀东路与高攀路交叉路口,104.07821,30.611247,"1,2,3",6
3014-260467,中环路火车南站东路段(科华南路口至桂溪路口),104.076081,30.610784,"1,2,3",6
3014-260468,中环路火车南站东路段(科华南路口至桂溪路口),104.07613,30.610771,"4,5",6
3014-260469,中环路火车南站东路段与科华南路交叉路口,104.075727,30.611087,"1,2,3",6
3014-260470,中环路火车南站东路段与科华南路交叉路口,104.075676,30.611017,"4,5,6",6
3014-260471,中环路火车南站东路段与科华南路交叉路口,104.075053,30.610248,"1,2,3",1
3014-260472,中环路火车南站东路段与科华南路交叉路口,104.075099,30.610145,"4,5",1
3014-260473,中环路火车南站东路段与科华南路交叉路口,104.073875,30.610769,"1,2,3",9
3014-260474,中环路火车南站东路段与科华南路交叉路口,104.07398,30.610779,"4,5,6",9
3014-260475,中环路火车南站东路段与长寿南路交叉路口,104.069213,30.61086,"1,2,3",9
3014-260476,中环路火车南站东路段与长寿南路交叉路口,104.06917,30.610859,"4,5,6",9
3014-260477,人民南路四段(中环路火车南站东路段路口至长寿路路口),104.064949,30.612123,"1,2",18
3014-260478,人民南路四段(中环路火车南站东路段路口至长寿路路口),104.064905,30.612118,"3,4,5",18
3014-260479,中环路紫瑞大道段(新光路路口至神仙树南路路口),104.047095,30.611226,"2,3",178
3014-260480,中环路武阳大道段与核桃堰路交叉路口,104.021147,30.626031,"1,2",174
3014-260481,中环路武阳大道段与太平园东二街交叉路口,104.015958,30.631209,"1,2,3",35
3014-260482,双丰西路与栖霞路交叉路口,104.009911,30.643362,"1,2,3,4",55
3014-260483,中环路武阳大道段与栖霞路交叉路口,104.008114,30.643626,"1,2,3",55
3014-260484,中环路武阳大道段(栖霞路口至鹭岛路口),104.008349,30.643816,"1,2,3",55
3014-260485,中环路武阳大道段(栖霞路口至鹭岛路口),104.008362,30.643792,"4,5",55
3014-260486,中环路武阳大道段(吉福路口至栖霞路口),104.006702,30.64643,"1,2,3",55
3014-260487,中环路武阳大道段(吉福路口至栖霞路口),104.006663,30.646563,"4,5",55
3014-260488,中环路武阳大道段(永盛路口至永顺街路口),104.01489,30.632388,"4,5,6",35
3014-260489,中环路武阳大道段(太平园东三街路口至太平园东二街路口),104.013998,30.633025,"4,5",35
3014-260490,中环路武阳大道段与太平园东三街交叉路口,104.01394,30.633439,"1,2,3",35
3014-260491,中环路武阳大道段与栖霞路交叉路口,104.009189,30.643372,"1,2,3",55
3014-260492,中环路武阳大道段与栖霞路交叉路口,104.008108,30.643633,"4,5",55
3014-260495,中环路火车南站西路段(桐叶路路口至桐梓林路路口),104.060948,30.611188,3,7
3014-260496,中环路同和路段与黄苑街交叉路口,104.015562,30.687464,"4,5,6",88
3014-260498,中环路锦绣大道段与晨辉北路交叉路口,104.099498,30.608097,"1,2",6
3014-260499,中环路一品天下大街段与安蓉路交叉路口,104.024803,30.696587,"4,5,6",114
3014-260500,中环路武阳大道段与太平园东三街交叉路口,104.013094,30.633334,"1,2,3",35
3014-260501,中环路二仙桥西路段与民兴四路交叉路口,104.121573,30.685268,"1,2,3",119
3014-260502,中环路火车南站东路段与长寿南路交叉路口,104.069636,30.61153,"1,2",9
3014-260503,中环路锦绣大道段与金马河路交叉路口,104.136827,30.637315,"1,2",17
3014-260504,中环路二仙桥西路段与民兴三路交叉路口,104.120098,30.686576,"1,2",119
3014-260505,中环路二仙桥西路段与民兴二路交叉路口,104.118274,30.688144,"1,2,3",119
3014-260506,金马河路(中环路锦绣大道段路口至光雾山路路口),104.137423,30.636968,"1,2,3",17
3014-260507,驷马桥街(中环路双荆路段路口至羊子山西路口),104.09761,30.710156,"1,2,3",203
3014-260925,中环路建材路段与御风一路交叉路口,104.136915,30.646256,"5,6,7",47
3014-260926,中环路建材路段与御风一路交叉路口,104.13693,30.646208,"1,2,3,4",47
3014-260927,人民南路四段与中环路火车南站东路段交叉路口,104.065639,30.611167,"1,2,3,4",9
3014-260928,中环路火车南站东路段(人民南路四段路口至天和西二街路口),104.066384,30.610903,"1,2,3,4",9
3014-260929,中环路火车南站东路段(人民南路四段路口至长寿南路路口),104.067964,30.61089,"1,2,3,4",9
3014-260930,中环路火车南站东路段(长寿南路路口至人民南路四段路口),104.067927,30.611078,"1,2,3,4",9
3014-260931,中环路火车南站东路段与长寿南路交叉路口,104.070139,30.611086,"1,2,3,4",9
3014-260932,中环路火车南站东路段(长寿南路路口至科华南路路口),104.070019,30.610916,"4,5",9
3014-260933,中环路火车南站东路段(长寿南路路口至科华南路路口),104.070365,30.610869,"1,2,3",9
3014-260934,中环路火车南站东路段(科华南路路口至长寿南路路口),104.073763,30.611071,"1,2,3,4",9
3014-260935,中环路高攀东路段与桂溪路交叉路口,104.078034,30.610253,"1,2,3,4",6
3014-260936,桂溪路(中环路火车南站东路段路口至金桂路口),104.078064,30.610246,"1,2,3",6
3014-260937,中环路锦绣大道段与琉璃路交叉路口,104.092612,30.608867,"1,2",6
3014-260938,中环路锦绣大道段与琉璃路交叉路口,104.093245,30.608233,"2,3,4",6
3014-260939,中环路锦绣大道与锦华路二段交叉路口,104.096431,30.608002,"2,3,4",6
3014-260940,中环路锦绣大道段(静明路口至菱窠路口),104.128431,30.619323,"1,2,3,4",15
3014-260943,中环路锦绣大道段与渠江路交叉路口,104.129619,30.621888,"1,2,3,4",17
3014-260944,中环路锦绣大道段与渠江路交叉路口,104.128866,30.622373,"1,2,3,4",17
3014-260945,中环路锦绣大道段与渠江路交叉路口,104.130124,30.621978,"1,2",17
3014-260946,中环路锦绣大道段与安宁河路交叉路口,104.130946,30.62441,"1,2,3",17
3014-260947,中环路锦绣大道段与沱江路交叉路口,104.133709,30.631186,"1,2,3,4",17
3014-260948,中环路锦绣大道段与沱江路交叉路口,104.133682,30.631178,"5,6,7",17
3014-260949,中环路锦绣大道段与白龙江路交叉路口,104.135653,30.635376,"5,6,7,8",17
3014-260950,中环路锦绣大道段与白龙江路交叉路口,104.135701,30.635405,"1,2,3,4",17
3014-260951,中环路锦绣大道段与白龙江路交叉路口,104.136447,30.635832,"1,2,3,4",17
3014-260952,中环路锦绣大道段与白龙江路交叉路口,104.135914,30.63664,"4,5,6,7",17
3014-260953,中环路锦绣大道段与白龙江路交叉路口,104.135861,30.636578,"1,2,3",17
3014-260954,中环路锦绣大道段与迎晖路交叉路口,104.136766,30.637951,"1,2,3,4",17
3014-260955,中环路锦绣大道段与迎晖路交叉路口,104.136825,30.638268,"5,6,7",17
3014-260958,中环路锦绣大道段与迎晖路交叉路口,104.13701,30.640214,"5,6",47
3014-260959,中环路锦绣大道段与迎晖路交叉路口,104.13701,30.640224,"1,2,3,4",47
3014-260960,中环路建材路段与御风一路交叉路口,104.137237,30.645449,"5,6,7",47
3014-260961,中环路建材路段与御风一路交叉路口,104.137238,30.645402,"1,2,3,4",47
3014-260962,中环路双店路段(大头河桥7人行横道路口至长融西一路路口),104.133415,30.661454,"1,2,3,4",90
3014-260963,中环路双店路段(大头河桥7人行横道路口至崔家店路路口),104.134906,30.65931,"1,2,3,4",90
3014-260965,中环路双荆路段与洪山北路交叉路口,104.093724,30.710726,1,201
3014-260966,中环路双荆路段与洪山北路交叉路口,104.094157,30.711637,"1,2",201
3014-260967,中环路双荆路段与荆竹坝路交叉路口,104.091153,30.711925,"1,2",201
3014-260968,中环路双荆路段与荆竹坝路交叉路口,104.091413,30.712922,"1,2",201
3014-260969,中环路双荆路段与沙荆路交叉路口,104.086746,30.712338,"1,2",201
3014-260970,中环路双荆路段与双瑞一路交叉路口,104.073969,30.71597,"1,2",196
3014-260971,中环路洞子口路段与福泉路交叉路口,104.051467,30.726021,"1,2",193
3014-260973,中环路金府路段与星汉北路交叉路口,104.042455,30.719438,"1,2",190
3014-260979,中环路一品天下大街段与营康西路交叉路口,104.022485,30.695827,"1,2,3",114
3014-260980,中环路同和路段与黄苑街交叉路口,104.016095,30.687009,"1,2",88
3014-260981,中环路同和路段与黄苑街交叉路口,104.014847,30.687348,"1,2",88
3014-260982,中环路青羊大道段与同济街交叉路口,104.013589,30.685618,"1,2",88
3014-260983,中环路青羊大道段与同盛路交叉路口,104.013426,30.682975,"1,2,3",88
3014-260984,金阳路(中环路青羊大道段路口至金凤路口),104.008677,30.679414,"1,2,3",88
3014-260985,中环路青羊大道段与瑞联路交叉路口,104.006211,30.667587,"1,2,3",86
3014-260986,中环路青羊大道段与瑞联路交叉路口,104.005069,30.667664,"1,2,3,4",86
3014-260987,光华村街(中环路青羊大道段路口至光华村南街路口),104.006449,30.667376,"1,2,3,4",86
3014-260990,中环路武阳大道段与太平园东三街交叉路口,104.014037,30.634187,"1,2,3,4",35
3014-260991,太平园东三街(中环路武阳大道段路口至太平园横二街路口),104.012899,30.633433,"1,2,3,4",35
3014-260992,永顺路(中环路武阳大道段路口至盛世路口),104.014121,30.634047,"1,2,3",35
3014-260994,中环路武阳大道段与太平园东三街交叉路口,104.013077,30.633322,"4,5",35
3014-260995,中环路武阳大道段与太平园东二街交叉路口,104.016036,30.631858,"1,2",35
3014-260996,中环路武阳大道段与太平园东二街交叉路口,104.015214,30.631157,"1,2,3",35
3014-260997,中环路武阳大道段与董家湾南路交叉路口,104.023482,30.623294,"2,3,4,5",174
3014-260998,中环路武阳大道段与核桃堰路交叉路口,104.02021,30.62537,"1,2",174
3014-260999,中环路紫瑞大道段(新光路口至神仙树南路口),104.050819,30.611383,"1,2,3,4",178
3014-281001,科华北路(二环路南一段路口至科华街路口),104.074405,30.62604,123,30
3014-281002,科华北路(二环路南一段路口至科华街路口),104.074348,30.625972,45,30
3014-281003,科华北路与锦绣路交叉路口,104.07428,30.627079,123,30
3014-281004,科华北路与锦绣路交叉路口,104.074273,30.627139,45,30
3014-281005,科华北路(锦绣路口至棕南正街路口),104.074128,30.627329,123,30
3014-281006,科华北路(锦绣路口至棕南正街路口),104.074101,30.62723,45,30
3014-281008,科华北路(科华街路口至一环路南一段路口),104.074074,30.630203,123,30
3014-281009,科华北路(科华街路口至一环路南一段路口),104.074074,30.630288,45,30
3014-281012,科华北路(科华街路口至一环路南一段路口),104.073931,30.632479,123,30
3014-281013,科华北路(科华街路口至一环路南一段路口),104.073955,30.632474,45,30
3014-281014,科华北路(科华巷路口至磨子街路口),104.073699,30.633573,123,30
3014-281015,科华北路(科华巷路口至磨子街路口),104.073694,30.633467,345,30
3014-281016,羊市街(人民中路二段至鹦哥巷),104.061197,30.669516,234,149
3014-281017,羊市街(西华门街至人民中路一段),104.061591,30.669378,123,149
3014-281018,羊市街(鹦哥巷至东城根下街),104.059011,30.669444,12,149
3014-281019,羊市街(东城根下街至西华门街),104.059092,30.669304,123,149
3014-281020,新南路(林荫中街路口至一环路南二段路口),104.073453,30.638456,12,163
3014-281021,新南路(林荫中街路口至一环路南二段路口),104.073464,30.638431,45,163
3014-281022,新南路与林荫中街交叉路口,104.073573,30.638373,123,163
3014-281023,新南路与林荫中街交叉路口,104.073566,30.638472,345,163
3014-281024,新南路与林荫中街交叉路口,104.072789,30.638881,123,163
3014-281027,新南路与林荫中街交叉路口,104.073407,30.639441,123,163
3014-281028,新南路与林荫中街交叉路口,104.073379,30.639462,345,163
3014-281029,新南路44号附34号人行横道路口,104.073433,30.641219,12,163
3014-281030,新南路44号附34号人行横道路口,104.073432,30.641169,345,163
3014-281031,新南路(胜利新村路口至林荫中街路口),104.073312,30.641098,123,163
3014-281032,新南路(胜利新村路口至林荫中街路口),104.073319,30.641108,45,163
3014-281033,新南路44号附34号人行横道路口,104.073268,30.641671,12,163
3014-281034,新南路44号附34号人行横道路口,104.073271,30.641729,345,163
3014-281035,新南路(一环路南一段路口至龙江路口),104.073383,30.641727,123,163
3014-281036,新南路(一环路南一段路口至龙江路口),104.073399,30.641768,345,163
3014-281037,新南路(一环路南一段路口至龙江路口),104.073177,30.643344,123,163
3014-281038,新南路(一环路南一段路口至龙江路口),104.073175,30.643356,45,163
3014-281039,新南路(南台路口至胜利新村路口),104.073044,30.643356,123,163
3014-281040,新南路(南台路口至胜利新村路口),104.073023,30.643359,345,163
3014-281041,新南路与龙江路交叉路口,104.073064,30.644161,123,163
3014-281042,新南路与龙江路交叉路口,104.073065,30.644202,345,163
3014-281061,红星路四段(滨江东路口至王家坝街路口),104.072572,30.648998,234,161
3014-281062,红星路四段(滨江东路口至王家坝街路口),104.072558,30.648983,45,161
3014-281063,红星路四段(锦兴路口至滨江中路口),104.072454,30.649666,123,161
3014-281064,红星路四段(锦兴路口至滨江中路口),104.072429,30.649638,45,161
3014-281065,红星路四段与锦兴路交叉路口,104.0727,30.650389,123,161
3014-281066,红星路四段与锦兴路交叉路口,104.072671,30.650345,456,161
3014-281067,锦兴路(红星路四段路口至向荣桥街路口),104.072236,30.650989,12,59
3014-281068,红星路四段与锦兴路交叉路口,104.073434,30.650557,1,57
3014-281069,红星路四段与锦兴路交叉路口,104.073029,30.651128,1234,57
3014-281070,红星路四段与锦兴路交叉路口,104.072985,30.651132,345,57
3014-281071,红星路四段(王家坝街路口至龙王庙正街路口),104.073955,30.652166,123,57
3014-281072,红星路四段(王家坝街路口至龙王庙正街路口),104.073944,30.65219,45,57
3014-281073,红星路四段(督院街路口至锦兴路口),104.073976,30.652511,123,57
3014-281074,红星路四段(督院街路口至锦兴路口),104.074007,30.652581,45,57
3014-281076,红星路四段与东大街下东大街段交叉路口,104.074903,30.655152,1234,138
3014-281077,红星路四段与东大街下东大街段交叉路口,104.07493,30.655136,45,138
3014-281078,东大街下东大街段(红星路四段路口至三圣街路口),104.076574,30.654336,123,58
3014-281079,东大街下东大街段(红星路四段路口至三圣街路口),104.076655,30.654309,345,58
3014-281080,红星路二段(岳府街路口至布后街路口),104.080977,30.662683,345,75
3014-281082,西玉龙街(东华门街至顺城大街),104.067049,30.669668,234,150
3014-281083,西玉龙街(顺城大街至大福建营巷),104.06668,30.66966,123,150
3014-281084,蜀都大道大慈寺路与红星路二段交叉路口,104.079038,30.659548,123,75
3014-281085,红星路二段(藩库街路口至干槐树街路口),104.080428,30.661511,12,75
3014-281086,红星路二段(藩库街路口至干槐树街路口),104.080545,30.661719,345,75
3014-281087,红星路二段(布后街路口至华兴东街路口),104.08051,30.661905,123,75
3014-281088,红星路二段(布后街路口至华兴东街路口),104.080522,30.661877,45,75
3014-281089,红星路二段与武成大街交叉路口,104.081146,30.662759,123,75
3014-281090,红星路二段与武成大街交叉路口,104.081145,30.662713,456,75
3014-281091,武成大街(红星路二段路口至惜字宫南街路口),104.081702,30.662996,123,75
3014-281092,岳府街(红星路二段路口至桂王桥南街路口),104.080912,30.663459,123,75
3014-281093,红星路二段(武成大街路口至庆云西街路口),104.081655,30.663492,123,75
3014-281094,红星路二段(武成大街路口至庆云西街路口),104.081703,30.663583,45,75
3014-281095,红星路二段与武成大街交叉路口,104.081595,30.663624,123,75
3014-281096,红星路二段与武成大街交叉路口,104.081559,30.663615,456,75
3014-281097,红星路二段(桂王桥东街路口至燕鲁公所街路口),104.082413,30.66491,123,75
3014-281098,红星路二段(桂王桥东街路口至岳府街路口),104.082415,30.664915,45,75
3014-281099,红星路二段(武成大街路口至庆云西街路口),104.082426,30.664688,123,75
3014-281100,红星路二段(武成大街路口至庆云西街路口),104.082413,30.664663,45,75
3014-281101,红星路一段(玉黄观街路口至昭忠祠街路口),104.084693,30.66834,123,139
3014-281102,红星路一段(玉黄观街路口至昭忠祠街路口),104.084693,30.668339,45,139
3014-281103,红星路一段(昭忠祠街路口至方正东街路口),104.084766,30.66866,123,139
3014-281104,红星路一段(昭忠祠街路口至方正东街路口),104.084798,30.668751,345,139
3014-281105,方正东街(红星路一段路口至石马巷路口),104.08401,30.668355,12,139
3014-281106,红星路一段与昭忠祠街交叉路口,104.086072,30.669397,1,139
3014-281107,红星路一段(昭忠祠街路口至东城拐下街路口),104.086296,30.670866,123,139
3014-281108,红星路一段(昭忠祠街路口至东城拐下街路口),104.086285,30.670861,45,139
3014-281109,红星路一段(星辉东滨河路口至昭忠祠街路口),104.086282,30.671079,123,139
3014-281110,红星路一段(星辉东滨河路口至昭忠祠街路口),104.086244,30.671056,45,139
3014-281111,府青路一段与建设北路一段交叉路口,104.087516,30.672853,12,139
3014-281112,府青路一段与建设北路一段交叉路口,104.087527,30.672845,345,139
3014-281113,建设北路一段(府青路一段路口至猛追湾横街路口),104.08832,30.67291,123,139
3014-281114,星辉东路,104.087004,30.673649,123,139
3014-281115,府青路一段与建设北路一段交叉路口,104.088316,30.672917,12,139
3014-281116,府青路一段与建设北路一段交叉路口,104.088346,30.672913,34,139
3014-281119,府青路一段(马鞍东路口至星辉东路口),104.089212,30.675213,123,139
3014-281120,府青路一段(马鞍东路口至星辉东路口),104.089278,30.675307,345,139
3014-281121,府青路一段(建设北路一段路口至石油路口),104.089252,30.675141,123,139
3014-281122,府青路一段(建设北路一段路口至石油路口),104.089093,30.674965,45,139
3014-281123,府青路一段与石油路交叉路口,104.090156,30.676223,12,139
3014-281124,府青路一段与石油路交叉路口,104.090145,30.67621,34,139
3014-281126,府青路二段与华油路交叉路口,104.094231,30.681345,123,106
3014-281127,府青路二段与华油路交叉路口,104.094313,30.681385,345,106
3014-281128,府青路二段与华油路交叉路口,104.094069,30.682047,12,106
3014-281129,府青路二段(一环路东一段路口至秀苑路口),104.094662,30.681873,12,106
3014-281130,府青路二段(一环路东一段路口至秀苑路口),104.094688,30.681865,345,106
3014-281131,府青路二段与华油路交叉路口,104.09477,30.682141,123,106
3014-281132,府青路二段与华油路交叉路口,104.094775,30.682119,345,106
3014-281133,人民南路三段(林荫街路口至小天竺街路口),104.063924,30.64252,123,159
3014-281134,人民南路三段(小天竺街路口至林荫街路口),104.063841,30.64204,123,159
3014-281135,府青路二段(虹波路口至华油路口),104.096583,30.684352,12,106
3014-281136,府青路二段(虹波路口至华油路口),104.096607,30.684391,345,106
3014-281137,府青路二段与虹波路交叉路口,104.096583,30.684229,12,106
3014-281138,府青路二段与虹波路交叉路口,104.096545,30.684175,345,106
3014-281139,府青路二段(踏水桥西街路口至府青东街路口),104.097031,30.684753,123,106
3014-281140,府青路二段(踏水桥西街路口至府青东街路口),104.097053,30.68478,4,106
3014-281141,府青路二段与虹波路交叉路口,104.096964,30.684896,123,106
3014-281142,府青路二段与虹波路交叉路口,104.097013,30.684946,345,106
3014-281143,府青路二段(府青东街路口至二环路东一段路口),104.098322,30.686385,123,106
3014-281144,府青路二段(府青东街路口至二环路东一段路口),104.098448,30.686511,45,106
3014-281145,府青路二段(二环路北四段路口至虹波路口),104.098401,30.686632,12,106
3014-281146,府青路二段(二环路北四段路口至虹波路口),104.098388,30.68663,345,106
3014-281148,科华南路(锦江大道路口至三环路南三段路口),104.075046,30.591534,123,216
3014-281149,科华南路(锦城大道路口至府城大道路口),104.072913,30.578642,123,216
3014-281150,科华南路(锦悦东路口至锦城大道路口),104.070142,30.575025,456,216
3014-281151,科华南路(锦悦东路口至绕城天府收费站),104.069517,30.573764,123,216
3014-281501,西玉龙街(小福建营巷至人民中路二段),104.0639,30.66963,1234,150
3014-281502,人民中路一段(东御河沿街至上升街),104.063216,30.668513,123,147
3014-281503,一环路南二段与新南路交叉路口,104.073474,30.636745,1234,163
3014-281504,红星路四段(东升街路口至东大街下东大街段路口),104.075515,30.654189,1234,57
3014-281505,红星路四段与东大街下东大街段交叉路口,104.075498,30.654176,1234,57
3014-281506,红星路四段(东大街城守东大街段路口至督院街路口),104.075552,30.654717,123,138
3014-281507,府青路一段(建设北路一段路口至石油路口),104.087881,30.673397,1234,139
3014-281508,红星路四段与锦兴路交叉路口,104.072653,30.649819,1234,161
3014-281509,府青路一段与石油路交叉路口,104.090612,30.676866,1234,139
3014-282001,府青跨线桥(虹波路口至星辉东路口),104.092479,30.679353,12,106
3014-282002,府青跨线桥(建设北路一段路口至府青东街路口),104.095677,30.683049,12,106
3014-282003,青龙场高架桥(府青路二段至府青路三段),104.100348,30.689044,12,108
3014-282004,青龙场高架桥(府青路二段至府青路三段),104.100176,30.688953,12,108
3014-282005,青龙场高架桥(府青路二段至成绵高速引道),104.103147,30.692588,12,108
3014-282006,青龙场高架桥(成绵高速引道至府青路二段),104.103486,30.693158,12,108
3014-282007,青龙场高架桥(成绵高速引桥至府青路二段),104.105466,30.695869,12,108
3014-282008,青龙场高架桥(府青路二段至成绵高速引桥),104.105597,30.696262,12,108
3014-282009,青龙场高架桥(成绵高速引道至府青路二段),104.104173,30.698804,12,205
3014-282010,青龙场高架桥八里庄下行匝道,104.104175,30.698806,12,205
3014-282011,青龙场高架桥(府青路二段至成绵高速引道),104.104532,30.698361,12,205
3014-282012,青龙场高架桥八里庄上行匝道,104.104308,30.698824,12,205
3014-282013,青龙场高架桥(中环路昭觉寺横路段上行匝道合流处),104.101595,30.702812,34,205
3014-282014,青龙场高架桥昭觉寺下行匝道,104.101609,30.703255,12,205
3014-283002,凤凰山桥下(出城),104.079059,30.698215, ,198
3014-283003,北星大道一段(东沙街路口至二环路北三段路口),104.077851,30.705354,"1,2,3",198
3014-283005,北星大道一段(东沙街路口至二环路北三段路口),104.077329,30.707151,"1,2,3",198
3014-283006,北星大道一段(出城)北新6处(无路名牌）,104.07782,30.708216,"1,2",198
3014-283009,双沙路(蜀祖路口至东沙街路口),104.078001,30.709386,"2,3",199
3014-283010,双沙路(蜀祖路口至东沙街路口),104.077998,30.709352,"1,2",199
3014-283011,双沙路(升仙湖南路口至双沙东路口),104.078081,30.709426,"1,2",199
3014-283012,双沙路(升仙湖南路口至双沙东路口),104.078072,30.709427,"2,3",199
3014-283013,双沙路与双沙东路交叉路口,104.078244,30.711713,"1,2",199
3014-283014,双沙路与蜀祖路交叉路口,104.077698,30.71189,"-1,1",199
3014-283015,双沙路与双沙东路交叉路口,104.078436,30.711902,"1,2",199
3014-283016,中环路双荆路段与双沙路交叉路口,104.07768,30.713304,"3,4,5,6",199
3014-283018,中环路双荆路段(双沙路口至双瑞一路路口),104.076976,30.713753,"1,2",196
3014-283019,中环路双荆路段与双瑞二路交叉路口,104.078808,30.713249,"1,2,3",199
3014-283020,双瑞二路与双耀二路交叉路口,104.077846,30.715264,"1,2",200
3014-283021,双瑞二路与双耀二路交叉路口,104.078154,30.71554,"1,2,3",200
3014-283022,双瑞二路与双耀二路交叉路口,104.078151,30.715546,"4,5,6",200
3014-283023,双瑞二路(双耀二路口至双耀一路口),104.0786,30.716392,"1,2,3",200
3014-283024,凤凰山高架桥双瑞二路上行匝道口,104.078637,30.716506,4,200
3014-283026,双瑞二路(双耀一路口至双耀二路口),104.078606,30.717183,"1,2,3",200
3014-283027,双瑞二路与双耀一路交叉路口,104.078934,30.71776,"1,2,3",200
3014-283028,双瑞二路与双耀一路交叉路口,104.078427,30.71809,"1,2,3",200
3014-283029,韦家碾三路与韦家碾四路交叉路口,104.080781,30.720006,"1,2,3",200
3014-283034,凤凰大道(进城)3km+170m处(无路名牌),104.085997,30.734411,"1,2,3",225
3014-283035,凤凰大道3km+365m处(无路名牌),104.085964,30.737442,"2,3,4",225
3014-283037,凤凰大道(进城)3km+368m处(无路名牌),104.086262,30.736965,"1,2,3",225
3014-283038,凤凰大道(出城)3km+370m处(无路名牌),104.086459,30.73755,"1,2,3",225
3014-283039,凤凰大道(出城)3km+370m处(无路名牌),104.086475,30.73746,"4,5",225
3014-283040,凤凰大道(出城)3km+585m处(无路名牌),104.086333,30.739068,"1,2,3",225
3014-283041,凤凰大道(出城)3km+860m处(无路名牌),104.086074,30.741849,"4,5,6",225
3014-283042,凤凰大道(出城)3km+860m处(无路名牌),104.08609,30.741752,"1,2,3",225
3014-283043,凤凰大道(出城)3km+980m处(无路名牌),104.086027,30.742598,4,225
3014-283044,凤凰大道(出城)3km+980m处(无路名牌),104.086033,30.742624,"1,2,3",225
3014-283046,凤凰大道(进城)4km+070m处(无路名牌),104.085681,30.74369,"1,2,3",225
3014-283047,凤凰大道(进城)4km+280m处(无路名牌),104.085511,30.745345,"1,2,3",225
3014-283048,凤凰大道(出城)4km+340m处(无路名牌),104.085821,30.746016,"1,2,3",225
3014-283050,凤凰大道(进城)5km+890m处(无路名牌),104.093021,30.756601,"4,5",225
3014-283051,凤凰大道(进城)5km+890m处(无路名牌),104.093033,30.75663,"1,2,3",225
3014-283052,凤凰大道(出城)5km+915m处(无路名牌),104.093761,30.7567,"4,5,6",225
3014-283053,凤凰大道(出城)5km+915m处(无路名牌),104.093758,30.756676,"1,2,3",225
3014-283054,兴川l路与万石路交叉路口,104.097383,30.756155,"1,2,3",225
3014-283056,金芙蓉大道一段(进城)6km+890m处(无路名牌),104.10134,30.762185,"1,2,3",225
3014-283057,中环路双荆路段(双沙路口至双兴街路口),104.079132,30.713053,"1,2,3",201
3014-283058,中环路双荆路段(双沙路口至双瑞一路路口),104.077006,30.71373,"2,3,4",196
3014-283059,中环路双荆路段与双瑞二路交叉路口,104.078788,30.713236,"4,5",199
3014-283060,中环路双荆路段与双沙路交叉路口,104.0777,30.713302,"1,2,3",199
3014-283062,金芙蓉大道一段(天宝路口至金新路口),104.111587,30.77498,2,225
3014-283065,金芙蓉大道一段(出城)8km+705m处(无路名牌),104.101728,30.762114,"4,5,6",225
3014-283066,金芙蓉大道一段(出城)8km+798m处(无路名牌),104.102207,30.762721,"1,2",225
3014-283067,金芙蓉大道一段(出城)8km+798m处(无路名牌),104.102272,30.762729,"3,4,5",225
3014-283068,金芙蓉大道一段(进城)9km+018m处(无路名牌),104.103151,30.764245,"1,2,3",225
3014-283069,金芙蓉大道一段(进城)9km+018m处(无路名牌),104.103142,30.764213,"4,5",225
3014-283070,金芙蓉大道一段(出城)9km+200m处(无路名牌),104.104515,30.765439,"1,2,3",225
3014-283071,金芙蓉大道一段(进城)9km+200m处(无路名牌),104.104204,30.765546,"1,2,3",225
3014-283072,金芙蓉大道一段(进城)9km+495m处(无路名牌),104.10623,30.768254,"1,2,3",225
3014-283073,金芙蓉大道一段(进城)9km+495m处(无路名牌),104.106273,30.768258,"4,5,6",225
3014-283074,金芙蓉大道一段(出城)9km+500处(无路名牌),104.106666,30.768217,"5,6",225
3014-283075,金芙蓉大道一段(出城)9km+500处(无路名牌),104.106644,30.768243,"1,2,3",225
3014-283076,金芙蓉大道一段(天宝路口至天龙大道口),104.109531,30.772686,"1,2,3",225
3014-283077,金芙蓉大道一段(天宝路口至天龙大道口),104.109514,30.772645,5,225
3014-283078,金芙蓉大道一段(天龙大道口至天宝路口),104.110298,30.773262,"1,2,3",225
3014-283079,金芙蓉大道一段(天宝路口至天龙大道口),104.110057,30.773372,"1,2,3",225
3014-283081,金芙蓉大道一段(天龙大道口至天宝路口),104.109251,30.771817,4,225
3014-283085,金芙蓉大道一段与金新路交叉路口,104.114608,30.777936,"1,2,3",225
3014-283501,双沙路与蜀祖路交叉路口,104.078054,30.712172,"1,2,3",199
3014-283502,中环路双荆路段与双沙路交叉路口,104.078245,30.712744,"1,2,3",199
3014-283503,中环路双荆路段与双瑞二路交叉路口,104.078078,30.713873,"1,2,3,4",199
3014-283504,双瑞二路与双耀二路交叉路口,104.0783,30.715019,"1,2,3.4",200
3014-283505,韦家碾四路与双耀一路交叉路口,104.079259,30.718838,"1,2,3,4",200
3014-283506,韦家碾四路(双耀一路口至韦家碾三路口),104.079535,30.719025,"1,2,3,4",200
3014-283507,韦家碾四路(韦家碾三路口至双耀一路口),104.079805,30.719517,"1,2,3,4",200
3014-283508,韦家碾三路与韦家碾四路交叉路口,104.080164,30.7197,"1,2,3,4",200
3014-283509,韦家碾三路与韦家碾四路交叉路口,104.079877,30.720142,"1,2,3,4",200
3014-283510,韦家碾三路与韦家碾四路交叉路口,104.080356,30.720445,"1,2,3,4",200
3014-283512,韦家碾一路与韦家碾四路交叉路口,104.080194,30.722275,"1,2,3,4",200
3014-283513,北三环路三段辅道与韦家碾四路交叉路口,104.0802,30.722951,"1,2,3",200
3014-283516,北三环路三段辅道与凤凰大道交叉路口,104.082062,30.724152,"1,2,3",225
3014-283517,凤凰大道(出城)1km+995m处(无路名牌),104.083114,30.724985,"1,2,3",225
3014-283518,凤凰大道(进城)2km+185m处(无路名牌),104.08364,30.726242,"1,2,3",225
3014-283519,凤凰大道(出城)2km+345m处(无路名牌),104.085488,30.729647,"1,2,3",225
3014-283521,凤凰大道(出城)2km+540m处(无路名牌),104.085667,30.730719,"1,2,3",225
3014-283522,凤凰大道(进城)2km+680m处(无路名牌),104.085409,30.730759,"1,2,3",225
3014-283523,凤凰大道(出城)2km+775m处(无路名牌),104.085865,30.73187,"1,2,3",225
3014-283525,凤凰大道(出城)3km+030m处(无路名牌),104.086104,30.733326,"1,2,3",225
3014-283526,凤凰大道(进城)3km+190m处(无路名牌),104.086176,30.735361,"1,2,3",225
3014-283528,凤凰大道(进城)3km+760m处(无路名牌),104.085956,30.740577,"1,2,3",225
3014-283529,凤凰大道(进城)3km+982m处(无路名牌),104.085737,30.742904,"1,2,3",225
3014-283530,凤凰大道(进城)4km+500m处(无路名牌),104.085395,30.747458,"1,2,3",225
3014-283531,凤凰大道(出城)4km+600m处(无路名牌),104.085578,30.748152,"1,2,3",225
3014-283532,凤凰大道(进城)4km+735m处(无路名牌),104.085258,30.748946,"1,2,3",225
3014-283533,凤凰大道(出城)4km+760m处(无路名牌),104.085481,30.749665,"1,2,3",225
3014-283534,凤凰大道(出城)5km+050m处,104.086225,30.752006,"1,2,3",225
3014-283535,凤凰大道(进城)5km+100m处,104.086226,30.752562,"1,2,3",225
3014-283536,凤凰大道(进城)5km+380m处(无路名牌),104.088275,30.754,"1,2,3",225
3014-283537,凤凰大道(出城)5km+410m处(无路名牌),104.089836,30.754498,"1,2,3",225
3014-283538,凤凰大道(进城)5km+520m处(无路名牌),104.090136,30.754975,"1,2,3",225
3014-283539,凤凰大道与兴川路交叉路口,104.094504,30.756766,"1,2,3",225
3014-283540,兴川路与隆回路交叉路口,104.096489,30.756055,"1,2,3,4",225
3014-283542,兴川路与万石路交叉路口,104.096911,30.756637,"1,2,3",225
3014-283543,金芙蓉大道一段(承顺街路口至金新路口),104.116276,30.77953,"1,2,3",225
3014-283544,金芙蓉大道一段(金新路口至承顺街路口),104.116617,30.779418,"1,2,3",225
3014-284001,凤凰山高架桥(出城)1km+226m处,104.078182,30.711418,"-1,1",199
3014-284004,凤凰山高架桥(进城)2km+854处,104.082717,30.724918,"-1,1",225
3014-284005,凤凰山高架桥(进城)至三环路内侧下行匝道分流处,104.081778,30.724222,1,225
3014-284006,凤凰山高架桥(进城)至三环路外侧下行匝道分流处,104.081836,30.724222,2,225
3014-284007,凤凰山高架桥(出城)2km+800m上行匝道合流处,104.082897,30.72464,"1,2",225
3014-284009,凤凰山高架桥(出城)2km+925m处,104.082985,30.724971,"3,4",225
3014-284010,凤凰山高架桥(进城)3km处,104.083974,30.726538,"1,2,3",225
3014-284011,凤凰山高架桥(进城)3km+725m处,104.085738,30.732165,"1,2,3",225
3014-284012,凤凰山高架桥(进城)3km+990m上行匝道合流处,104.086098,30.734506,"3,4",225
3014-284013,凤凤凰山高架桥(出城)4km+106m处,104.08645,30.735641,"1,2,3",225
3014-284015,凤凰山高架桥(出城)4km+427m下行匝道分流处,104.086288,30.738679,4,225
3014-284016,凤凰山高架桥(进城)4km+673m处,104.085969,30.741257,"1,2,3",225
3014-284017,凤凰山高架桥(出城)4km+951m处,104.086053,30.741394,"1,2,3",225
3014-284018,凤凰山高架桥(出城)5km+126m处,104.085811,30.744973,"3,4",225
3014-284019,凤凰山高架桥(进城)5km+207m处,104.085572,30.746087,4,225
3014-284020,凤凰山高架桥(出城)5km+395m处,104.085611,30.747034,"1,2,3",225
3014-284021,凤凰山高架桥(进城)5km+577m处,104.08535,30.748861,"1,2,3",225
3014-284022,凤凰山高架桥(出城)5km+795m处,104.085457,30.750306,"1,2,3",225
3014-284023,凤凰山高架桥(进城)6km+189m处,104.087474,30.753452,"1,2,3",225
3014-284024,凤凰山高架桥(出城)6km+714m处,104.092248,30.755908,"1,2,3",225
3014-284025,凤凰山高架桥(进城)7km+369m处,104.095878,30.758165,"1,2,3",225
3014-284026,凤凰山高架桥(出城)7km+396m处,104.096656,30.758492,"1,2,3",225
3014-284027,凤凰山高架桥(出城)7km+757m处,104.101118,30.761703,"1,2,3",225
3014-284500,凤凰山桥上(出城)0公里+135m处,104.079007,30.69852, ,198
3014-284502,凤凰山高架桥(出城)0km+709m处,104.077812,30.706765,"4,5",198
3014-284503,凤凰山高架桥(进城)2km+005m处,104.07877,30.718226,"2,3",200
3014-284504,凤凰山高架桥(出城)2km+135m处,104.079101,30.719078,"2,3",200
3014-284505,凤凰山高架桥(进城)2km+890m处,104.082438,30.724557,"1,2",225
3014-284506,凤凰山高架桥(出城)2km+925m处,104.082977,30.724919,"1,2",225
3014-284507,凤凰山高架桥(进城)3km+990m处,104.086112,30.73452,"1,2,3",225
3014-284508,凤凰山高架桥(出城)4km+426m处,104.086284,30.738761,"1,2,3",225
3014-284509,凤凰山高架桥(出城)5km+126m处,104.085807,30.744952,"1,2,3",225
3014-284511,凤凰山高架桥(出城)6km+487m下行匝道分流处,104.09041,30.754871,"3,4",225
3014-284513,凤凰山高架桥(进城)1km+713m处,104.078351,30.716164,"1,2,3",200
3014-285002,神仙树高架路0km+529m处,104.035106,30.624482, ,176
3014-285003,神仙树高架路1km+34m处,104.034104,30.62288,"-1,1",176
3014-285004,神仙树高架路(出城)1km+594m上行匝道合流处,104.031977,30.618519,"1,2",175
3014-285005,神仙树高架路1km+594m处,104.032381,30.618172,"-1,1",175
3014-285006,神仙树高架路2km+268m处,104.038249,30.614705, ,177
3014-285007,神仙树高架路（出城）3Km+241m上行匝道合流处,104.046342,30.609594,"1,2,3",179
3014-285009,神仙树高架路（进城）3km+859m处,104.046817,30.603071,"1,2,3",181
3014-285012,三环路石羊立交匝道（家和街至盛和三路）,104.046073,30.599769,"4,5",214
3014-285013,神仙树高架路（进城）4km+476m处,104.045573,30.59807,"1,2,3",214
3014-285014,神仙树高架路（进城）4km+476m处,104.045513,30.597816,"1,2,3",214
3014-285017,三环路至剑南大道匝道合流处,104.046776,30.60182,"1,2",181
3014-285020,二环路南四段至高朋大道下行匝道分流处,104.036579,30.631207,"1,2",172
3014-285500,神仙树高架路（出城）0km+752m下行匝道分流处,104.036685,30.626883,"2,3",176
3014-286001,高朋大道（二环路南四段路口至科园一路口）,104.038071,30.628836,"1,2",176
3014-286002,高朋大道（二环路南四段路口至科园一路口）,104.038038,30.628801,3,176
3014-286005,高朋大道与科园一路交叉路口,104.038149,30.627939,1，-1,176
3014-286007,高朋大道与科园一路交叉路口,104.037617,30.627841,"1,2,3",176
3014-286030,中环路科园大道段与高朋东路交叉路口,104.03425,30.617646,1，-1,175
3014-286032,中环路紫瑞大道段与高新大道创业路交叉路口,104.036341,30.616349,"1,2",12
3014-286033,创业路（中环路紫瑞大道段路口至紫荆西路路口）,104.036943,30.616577,"1,2",12
3014-286036,中环路紫瑞大道段与紫瑞北街交叉路口,104.041985,30.613718,"-1,1",177
3014-286037,中环路紫瑞大道段与紫瑞北街交叉路口,104.042208,30.612863,"1,2",177
3014-286038,中环路紫瑞大道段与紫瑞北街交叉路口,104.042275,30.613075,"1,2",177
3014-286044,神仙树南路（紫薇东路路口至紫杉路步行街路口）,104.045911,30.615542,"1,2",-1
3014-286045,神仙树高架路（神仙树南路）上行匝道口,104.045777,30.615561,"2,3,4",-1
3014-286066,中环路科园大道段与高朋东路交叉路口,104.034285,30.616944,"1,2,3,",175
3014-286067,中环路科园大道段与高朋东路交叉路口,104.034292,30.616939,"3,4,5",175
3014-286068,中环路紫瑞大道段与高新大道创业路交叉路口,104.036717,30.615677,"1,2,3",177
3014-286069,中环路紫瑞大道段与高新大道创业路交叉路口,104.036779,30.615641,"4,5,6",177
3014-286070,中环路紫瑞大道段（紫瑞北街路口至高新大道创业路口）,104.04021,30.613996, ,177
3014-286071,中环路紫瑞大道段（紫瑞北街路口至高新大道创业路口）,104.040239,30.613999,"4,5",177
3014-286072,中环路紫瑞大道段与紫瑞北街交叉路口,104.041552,30.613232, ,177
3014-286073,中环路紫瑞大道段与紫瑞北街交叉路口,104.041546,30.613209, ,177
3014-286074,中环路紫瑞大道段（神仙树南路口至紫瑞北街路口）,104.044041,30.611742,"1,2",177
3014-286075,中环路紫瑞大道段（神仙树南路口至紫瑞北街路口）,104.043967,30.611679,"1,2,3",177
3014-286079,神仙树南路11号人行横道路口,104.045818,30.616212,"1,2,3",-1
3014-286080,神仙树南路与紫薇东路交叉路口,104.046141,30.61366, ,177
3014-286081,神仙树南路与紫薇东路交叉路口,104.046096,30.613705, ,177
3014-286082,神仙树南路（紫薇东路路口至紫杉路步行街路口）,104.046113,30.614005, ,177
3014-286085,神仙树南路（中环路紫瑞大道段路口至紫薇东路口）,104.046758,30.612154, ,178
3014-286500,二环路南四段与高朋大道交叉路口,104.03873,30.629628,"1,2,3,4",176
3014-286509,中环路紫瑞大道段（高新大道创业路口至紫瑞北街路口）,104.037259,30.615285,"1,2,3",177
3014-286513,中环路科园大道段与高朋东路交叉路口,104.033463,30.61737,"1,2,3,4",175
3014-286514,中环路紫瑞大道段与高新大道创业路交叉路口,104.035627,30.616116,"1,2,3",175
3014-286515,中环路紫瑞大道段（紫瑞北街路口至神仙树南路口）,104.043003,30.612501,"1,2,3",177
3014-287001,高升桥路（一环路南四段路口至七道堰街路口）,104.037942,30.644065,"1,2,3",171
3014-287003,高升桥路（高升桥南街路口至一环路南四段路口）,104.037186,30.643552,"4,5",171
3014-287004,高升桥路（高升桥南街路口至一环路南四段路口）,104.037273,30.643587,"1,2,3",171
3014-287005,高升桥路与七道堰街交叉路口,104.036269,30.643358,"4,5",171
3014-287006,高升桥路与七道堰街交叉路口,104.0363,30.643378,"1,2,3",171
3014-287007,高升桥路与高升桥南街交叉路口,104.035011,30.642482,"1,2,3",171
3014-287008,高升桥路与高升桥南路交叉路口,104.035036,30.642456,"4,5",171
3014-287009,高升桥路（七道堰街路口至广福桥北街路口）,104.034587,30.642456,"4,5",171
3014-287010,高升桥路（七道堰街路口至广福桥北街路口）,104.034536,30.642372,"1,2,3",171
3014-287011,高升桥路（广福桥街路口至高升桥南街路口）,104.034631,30.642229,"4,5",171
3014-287012,高升桥路（广福桥街路口至高升桥南路路口）,104.034606,30.642225,"1,2,3",171
3014-287013,高升桥路（广福桥街路口至高升桥南街路口）,104.033373,30.641264,"4,5",171
3014-287014,高升桥路（广福桥街路口至高升桥南街路口）,104.033453,30.641352,"1,2,3",171
3014-287015,高升桥路与广福桥北街交叉路口,104.03299,30.641243,"4,5,6",171
3014-287016,高升桥路与广福桥北街交叉路口,104.032986,30.641212,"1,2,3,4",171
3014-287017,高升桥路与广福桥北街交叉路口,104.032447,30.641287,"1,2,3",171
3014-287018,高升桥路与广福桥北街交叉路口,104.032925,30.640462,"1,2,3",171
3014-287019,高升桥路与广福桥北街交叉路口,104.032308,30.641209,"1,2,3",171
3014-287020,高升桥路与广福桥街交叉路口,104.032657,30.640563,1,171
3014-287021,高升桥路与广福桥北街交叉路口,104.032328,30.64052,"4,5,6",171
3014-287022,高升桥路与广福桥北街交叉路口,104.03231,30.640481,"1,2,3",171
3014-287023,高升桥路（碧云路口至广福桥北街路口）,104.031601,30.639953,"1,2,3",171
3014-287024,高升桥路与碧云路交叉路口,104.030999,30.639763,4,171
3014-287025,高升桥路与碧云路交叉路口,104.03098,30.639668,"1,2,3",171
3014-287026,高升桥路（碧云路口至广福桥街路口）,104.031493,30.639904,"4,5",171
3014-287027,高升桥路与碧云路交叉路口,104.030589,30.639201,"1,2,3",171
3014-287028,高升桥路与碧云路交叉路口,104.030573,30.63921,"4,5",171
3014-287029,二环路南四段与高升桥路交叉路口,104.029709,30.638816,"1,2,3,4",171
3014-287033,永盛南街路口与佳灵路交叉路口,104.027244,30.637724,"1,2",22
3014-287034,长城西一路与佳灵路交叉路口,104.027101,30.636489,"1,2,3",22
3014-287035,佳灵路（永盛南街路口至红牌楼路口）,104.026401,30.636867,"4,5",22
3014-287036,佳灵路（永盛南街路口至红牌楼路口）,104.026436,30.636881,"1,2,3",22
3014-287037,佳灵路（红牌楼路口至长城西一路口）,104.025869,30.636267,"4,5",22
3014-287038,佳灵路（红牌楼路口至长城西一路口）,104.025857,30.636241,"1,2,3",22
3014-287039,佳灵路与红牌楼路交叉路口,104.02505,30.635955,"4,5,6",22
3014-287040,佳灵路与红牌楼路交叉路口,104.025186,30.636089,"1,2,3",22
3014-287041,成双大道佳灵路与红牌楼路交叉路口,104.02426,30.635925,"1,2",22
3014-287042,成双大道佳灵路与红牌楼路交叉路口,104.024707,30.634932,"1,2,3",22
3014-287043,成双大道佳灵路与红牌楼路交叉路口,104.024669,30.634866,"4,5",22
3014-287044,红牌楼一街与成双大道佳灵路交叉路口,104.024234,30.63439,"4,5",22
3014-287045,红牌楼一街与成双大道佳灵路交叉路口,104.024193,30.634347,"1,2,3",22
3014-287046,红牌楼一街与成双大道佳灵路交叉路口,104.023585,30.63426,"1,2",22
3014-287047,红牌楼一街与成双大道佳灵路交叉路口,104.024167,30.633464,"4,5",22
3014-287048,红牌楼一街与成双大道佳灵路交叉路口,104.024117,30.633448,"1,2,3",22
3014-287049,佳灵路（红牌楼一街至董家湾正街）,104.023758,30.633136,"1,2,3",22
3014-287050,佳灵路（红牌楼一街至董家湾正街）,104.02376,30.633124,"4,5",22
3014-287054,佳灵路与长益路交叉路口,104.022753,30.631287,"1,2,3",22
3014-287055,佳灵路与长益路交叉路口,104.022699,30.631254,"4,5,6",22
3014-287056,佳灵路与长益路交叉路口,104.022261,30.63072,"4,5,6",22
3014-287057,佳灵路与长益路交叉路口,104.022257,30.6307,"1,2,3",22
3014-287058,佳灵路（长益路口至中环路武阳大道段路口）,104.021822,30.630496,"4,5",22
3014-287059,佳灵路（长益路口至中环路武阳大道段路口）,104.021747,30.630316,"1,2,3",22
3014-287060,佳灵路（中环路武阳大道段路口至长益路口）,104.020058,30.628576,"4,5",22
3014-287061,佳灵路（中环路武阳大道段路口至长益路口）,104.020038,30.628631,"1,2,3",22
3014-287062,中环路武阳大道段与佳灵路交叉路口,104.019523,30.628328,"4,5,6,7",22
3014-287501,高升桥路与二环路西一段交叉路口,104.029785,30.638873,"5,6,7",171
3014-287503,佳灵路与长益路交叉路口,104.023099,30.630722,"1,2,3",22
3014-287504,佳灵路与长益路交叉路口,104.021904,30.631228,"1,2",22
3014-287505,中环路武阳大道段与佳灵路交叉路口,104.019504,30.628256,"1,2,3",22
3014-289009,中环路二仙桥东路段(建设北路三段路口至枫丹路路口),104.125276,30.681954,4,119
3014-289015,中环路二仙桥东路段与枫丹路交叉路口,104.130012,30.678642,"3,4",119
3014-289016,中环路二仙桥东路段与枫丹路交叉路口,104.130013,30.678628,"1,2",119
3014-289018,中环路二仙桥东路段(建设北路三段至杉板桥路口),104.130113,30.678377,4,119
3014-289019,中环路二仙桥路东路段跨线桥(崔家店南路口至二仙桥北一路口),104.131974,30.676955,"1,2",119
3014-289020,中环路二仙桥路东路段跨线桥(二仙桥北一路口至崔家店南路口),104.134547,30.671504,"1,2",90
3014-289028,中环路崔家店路段(崔家店路459号人行横道路口至和正路路口),104.134422,30.668773,"1,2,3",90
3014-289030,中环路崔家店路段(和正路路口至崔家店南路口),104.134357,30.66941,"1,2,3",90
3014-289031,中环路崔家店路(和正路路口至崔家店南路口),104.134307,30.66932,4,90
3014-289045,杉板桥路下穿隧道(G76沪蓉高速至枫林南路口),104.131477,30.673465,"1,2,3",74
